[
    {
        "id": "8220DB000002",
        "name": "Parnell Square West, stop 2",
        "coords": {
            "lat": 53.3522443611407,
            "lon": -6.263723218918821
        }
    },
    {
        "id": "8220DB000003",
        "name": "Parnell Square West, stop 3",
        "coords": {
            "lat": 53.352308551434895,
            "lon": -6.26381074216821
        }
    },
    {
        "id": "8220DB000004",
        "name": "Parnell Square West, stop 4",
        "coords": {
            "lat": 53.3525745131874,
            "lon": -6.264175486037931
        }
    },
    {
        "id": "8220DB000006",
        "name": "Parnell Square West, stop 6",
        "coords": {
            "lat": 53.352749335706996,
            "lon": -6.26445380396429
        }
    },
    {
        "id": "8220DB000007",
        "name": "Parnell Square West, stop 7",
        "coords": {
            "lat": 53.352840910580795,
            "lon": -6.2645702612174405
        }
    },
    {
        "id": "8220DB000008",
        "name": "Parnell Square West, stop 8",
        "coords": {
            "lat": 53.353272271484606,
            "lon": -6.26518367657395
        }
    },
    {
        "id": "8220DB000010",
        "name": "Parnell Square West, stop 10",
        "coords": {
            "lat": 53.3533921036497,
            "lon": -6.26538912389949
        }
    },
    {
        "id": "8220DB000011",
        "name": "St Joseph's Parade, stop 11",
        "coords": {
            "lat": 53.3568152335319,
            "lon": -6.26467919507521
        }
    },
    {
        "id": "8220DB000012",
        "name": "Upper Dorset Street, stop 12",
        "coords": {
            "lat": 53.35710751620461,
            "lon": -6.26438186733525
        }
    },
    {
        "id": "8220DB000014",
        "name": "Dorset Street Lower, stop 14",
        "coords": {
            "lat": 53.358531237878196,
            "lon": -6.2627765057086595
        }
    },
    {
        "id": "8220DB000015",
        "name": "Innisfallen Parade, stop 15",
        "coords": {
            "lat": 53.360266707598896,
            "lon": -6.26097804267247
        }
    },
    {
        "id": "8220DB000016",
        "name": "Nephin Road Park, stop 16",
        "coords": {
            "lat": 53.3663915571432,
            "lon": -6.3056141835273305
        }
    },
    {
        "id": "8220DB000017",
        "name": "Drumcondra Rail Stn, stop 17",
        "coords": {
            "lat": 53.363078324380396,
            "lon": -6.25839928847829
        }
    },
    {
        "id": "8220DB000018",
        "name": "Dargle Road, stop 18",
        "coords": {
            "lat": 53.36585592591911,
            "lon": -6.2559568206783
        }
    },
    {
        "id": "8220DB000019",
        "name": "Botanic Avenue, stop 19",
        "coords": {
            "lat": 53.3672348759349,
            "lon": -6.25559994097697
        }
    },
    {
        "id": "8220DB000021",
        "name": "DCU St Patrick's, stop 21",
        "coords": {
            "lat": 53.3701011992972,
            "lon": -6.254310599044371
        }
    },
    {
        "id": "8220DB000022",
        "name": "Home Farm Road, stop 22",
        "coords": {
            "lat": 53.373503609743096,
            "lon": -6.25280375269001
        }
    },
    {
        "id": "8220DB000023",
        "name": "Ferguson Road, stop 23",
        "coords": {
            "lat": 53.3742282800816,
            "lon": -6.25626100416695
        }
    },
    {
        "id": "8220DB000024",
        "name": "Walsh Road, stop 24",
        "coords": {
            "lat": 53.3751331588865,
            "lon": -6.2603723481231395
        }
    },
    {
        "id": "8220DB000025",
        "name": "Rathlin Road, stop 25",
        "coords": {
            "lat": 53.3758994661498,
            "lon": -6.26361773641705
        }
    },
    {
        "id": "8220DB000027",
        "name": "Ballymun Road, stop 27",
        "coords": {
            "lat": 53.379438960013104,
            "lon": -6.26658526125999
        }
    },
    {
        "id": "8220DB000028",
        "name": "Hampstead Avenue, stop 28",
        "coords": {
            "lat": 53.381578637630504,
            "lon": -6.2660022707773395
        }
    },
    {
        "id": "8220DB000029",
        "name": "Albert College Park, stop 29",
        "coords": {
            "lat": 53.383488252948204,
            "lon": -6.26566910125412
        }
    },
    {
        "id": "8220DB000030",
        "name": "Ventry Park, stop 30",
        "coords": {
            "lat": 53.370331900195104,
            "lon": -6.30460116922909
        }
    },
    {
        "id": "8220DB000031",
        "name": "St Pappin's Road, stop 31",
        "coords": {
            "lat": 53.3860332259168,
            "lon": -6.2688580772749605
        }
    },
    {
        "id": "8220DB000032",
        "name": "Stormanstown Road, stop 32",
        "coords": {
            "lat": 53.386195568076104,
            "lon": -6.27137720104136
        }
    },
    {
        "id": "8220DB000033",
        "name": "Glasnevin Drive, stop 33",
        "coords": {
            "lat": 53.3887179243081,
            "lon": -6.271771141224459
        }
    },
    {
        "id": "8220DB000035",
        "name": "Dean Swift Road, stop 35",
        "coords": {
            "lat": 53.3862067871037,
            "lon": -6.270910692540951
        }
    },
    {
        "id": "8220DB000036",
        "name": "Maolbuille Road, stop 36",
        "coords": {
            "lat": 53.3861268504134,
            "lon": -6.2678770697833395
        }
    },
    {
        "id": "8220DB000037",
        "name": "DCU Ballymun Road, stop 37",
        "coords": {
            "lat": 53.385346401196394,
            "lon": -6.2648869813179004
        }
    },
    {
        "id": "8220DB000038",
        "name": "Hampstead Avenue, stop 38",
        "coords": {
            "lat": 53.382236594166095,
            "lon": -6.26550952120501
        }
    },
    {
        "id": "8220DB000039",
        "name": "The Rise, stop 39",
        "coords": {
            "lat": 53.3804141869347,
            "lon": -6.265658759065841
        }
    },
    {
        "id": "8220DB000040",
        "name": "Stella Avenue, stop 40",
        "coords": {
            "lat": 53.3766607654531,
            "lon": -6.2646689685279
        }
    },
    {
        "id": "8220DB000041",
        "name": "Home Farm Road, stop 41",
        "coords": {
            "lat": 53.375559268328296,
            "lon": -6.2618580062466505
        }
    },
    {
        "id": "8220DB000042",
        "name": "Corpus Christi NS, stop 42",
        "coords": {
            "lat": 53.37465027346,
            "lon": -6.2574611897212895
        }
    },
    {
        "id": "8220DB000043",
        "name": "Achill Road, stop 43",
        "coords": {
            "lat": 53.3738612202293,
            "lon": -6.2539013104338705
        }
    },
    {
        "id": "8220DB000044",
        "name": "Skylon Hotel, stop 44",
        "coords": {
            "lat": 53.373017409122895,
            "lon": -6.2521323032429095
        }
    },
    {
        "id": "8220DB000045",
        "name": "DCU St Patrick's, stop 45",
        "coords": {
            "lat": 53.36993643440311,
            "lon": -6.254106940849611
        }
    },
    {
        "id": "8220DB000046",
        "name": "Botanic Avenue, stop 46",
        "coords": {
            "lat": 53.367131016217606,
            "lon": -6.255258556550079
        }
    },
    {
        "id": "8220DB000047",
        "name": "Drumcondra Rail Stn, stop 47",
        "coords": {
            "lat": 53.3639161189952,
            "lon": -6.25729825652797
        }
    },
    {
        "id": "8220DB000048",
        "name": "Fitzroy Avenue, stop 48",
        "coords": {
            "lat": 53.36225739012529,
            "lon": -6.25880841233312
        }
    },
    {
        "id": "8220DB000049",
        "name": "Dorset Street Lower, stop 49",
        "coords": {
            "lat": 53.3600042378903,
            "lon": -6.26085350834049
        }
    },
    {
        "id": "8220DB000051",
        "name": "Temple Street, stop 51",
        "coords": {
            "lat": 53.3578104088118,
            "lon": -6.26327157246547
        }
    },
    {
        "id": "8220DB000052",
        "name": "Dorset Street Upper, stop 52",
        "coords": {
            "lat": 53.3566607792373,
            "lon": -6.26456528204094
        }
    },
    {
        "id": "8220DB000053",
        "name": "North Circular Road, stop 53",
        "coords": {
            "lat": 53.3600144884247,
            "lon": -6.26279128910748
        }
    },
    {
        "id": "8220DB000054",
        "name": "Mater Hospital, stop 54",
        "coords": {
            "lat": 53.3602216080572,
            "lon": -6.26590803396304
        }
    },
    {
        "id": "8220DB000055",
        "name": "Mountjoy, stop 55",
        "coords": {
            "lat": 53.3604116029257,
            "lon": -6.26846957982232
        }
    },
    {
        "id": "8220DB000056",
        "name": "Dalymount, stop 56",
        "coords": {
            "lat": 53.360759724606396,
            "lon": -6.2763736549140505
        }
    },
    {
        "id": "8220DB000057",
        "name": "Dalymount, stop 57",
        "coords": {
            "lat": 53.360816224294204,
            "lon": -6.27655167484326
        }
    },
    {
        "id": "8220DB000058",
        "name": "Churchview Home, stop 58",
        "coords": {
            "lat": 53.3609462458936,
            "lon": -6.28120420246718
        }
    },
    {
        "id": "8220DB000059",
        "name": "Annamoe Terrace, stop 59",
        "coords": {
            "lat": 53.361018010198606,
            "lon": -6.28494256312823
        }
    },
    {
        "id": "8220DB000060",
        "name": "Quarry Road, stop 60",
        "coords": {
            "lat": 53.3612792196503,
            "lon": -6.28936450005441
        }
    },
    {
        "id": "8220DB000063",
        "name": "Faussaugh Avenue, stop 63",
        "coords": {
            "lat": 53.366792437295196,
            "lon": -6.292750108058491
        }
    },
    {
        "id": "8220DB000064",
        "name": "Faussaugh Ave Church, stop 64",
        "coords": {
            "lat": 53.367088582068796,
            "lon": -6.29523278220332
        }
    },
    {
        "id": "8220DB000065",
        "name": "Dingle Road, stop 65",
        "coords": {
            "lat": 53.3672546442408,
            "lon": -6.29805127641295
        }
    },
    {
        "id": "8220DB000066",
        "name": "Broombridge Road, stop 66",
        "coords": {
            "lat": 53.3672749883724,
            "lon": -6.3007403455498805
        }
    },
    {
        "id": "8220DB000068",
        "name": "Ventry Drive, stop 68",
        "coords": {
            "lat": 53.36907750804811,
            "lon": -6.30424523466637
        }
    },
    {
        "id": "8220DB000069",
        "name": "Carnlough Road, stop 69",
        "coords": {
            "lat": 53.3713925640956,
            "lon": -6.3033417168952095
        }
    },
    {
        "id": "8220DB000071",
        "name": "Ventry Park, stop 71",
        "coords": {
            "lat": 53.370257689331,
            "lon": -6.304438805303481
        }
    },
    {
        "id": "8220DB000072",
        "name": "Ventry Drive, stop 72",
        "coords": {
            "lat": 53.3689699260271,
            "lon": -6.30426453600159
        }
    },
    {
        "id": "8220DB000073",
        "name": "Faussagh Avenue, stop 73",
        "coords": {
            "lat": 53.3673915527279,
            "lon": -6.30072067865566
        }
    },
    {
        "id": "8220DB000074",
        "name": "Faussaugh Ave Church, stop 74",
        "coords": {
            "lat": 53.367200238565594,
            "lon": -6.29549881400774
        }
    },
    {
        "id": "8220DB000075",
        "name": "Fionnbarra GAA, stop 75",
        "coords": {
            "lat": 53.366547229896796,
            "lon": -6.2913173193678995
        }
    },
    {
        "id": "8220DB000077",
        "name": "Quarry Road, stop 77",
        "coords": {
            "lat": 53.36130918190471,
            "lon": -6.2895736523468395
        }
    },
    {
        "id": "8220DB000078",
        "name": "Annamoe Terrace, stop 78",
        "coords": {
            "lat": 53.361149215192796,
            "lon": -6.2840658352747
        }
    },
    {
        "id": "8220DB000079",
        "name": "Churchview Home, stop 79",
        "coords": {
            "lat": 53.3610212509784,
            "lon": -6.280795505621481
        }
    },
    {
        "id": "8220DB000080",
        "name": "Phibsborough PO, stop 80",
        "coords": {
            "lat": 53.3608629632753,
            "lon": -6.2760539615295805
        }
    },
    {
        "id": "8220DB000081",
        "name": "Phibsborough, stop 81",
        "coords": {
            "lat": 53.3608757479082,
            "lon": -6.271966626916031
        }
    },
    {
        "id": "8220DB000082",
        "name": "Phibsborough, stop 82",
        "coords": {
            "lat": 53.360797795917904,
            "lon": -6.27154908016377
        }
    },
    {
        "id": "8220DB000083",
        "name": "Mater Hospital, stop 83",
        "coords": {
            "lat": 53.36027924982471,
            "lon": -6.26554509616271
        }
    },
    {
        "id": "8220DB000084",
        "name": "Leo Street, stop 84",
        "coords": {
            "lat": 53.3601625615987,
            "lon": -6.263701780590969
        }
    },
    {
        "id": "8220DB000085",
        "name": "Wellpark Avenue, stop 85",
        "coords": {
            "lat": 53.3739579526161,
            "lon": -6.25191342966416
        }
    },
    {
        "id": "8220DB000086",
        "name": "Home Farm FC, stop 86",
        "coords": {
            "lat": 53.3760502204615,
            "lon": -6.25116639066164
        }
    },
    {
        "id": "8220DB000087",
        "name": "Clare Road, stop 87",
        "coords": {
            "lat": 53.3767517255744,
            "lon": -6.25488028992455
        }
    },
    {
        "id": "8220DB000088",
        "name": "Walnut Rise, stop 88",
        "coords": {
            "lat": 53.3772872553016,
            "lon": -6.25769922864556
        }
    },
    {
        "id": "8220DB000090",
        "name": "Albert College Court, stop 90",
        "coords": {
            "lat": 53.386385531676204,
            "lon": -6.26526567275517
        }
    },
    {
        "id": "8220DB000091",
        "name": "Ballymun Road NS, stop 91",
        "coords": {
            "lat": 53.38842788965079,
            "lon": -6.26540814207678
        }
    },
    {
        "id": "8220DB000092",
        "name": "Ballymun Library, stop 92",
        "coords": {
            "lat": 53.3898373340536,
            "lon": -6.264674240361001
        }
    },
    {
        "id": "8220DB000093",
        "name": "Gateway Avenue, stop 93",
        "coords": {
            "lat": 53.3923014677522,
            "lon": -6.264152975610089
        }
    },
    {
        "id": "8220DB000094",
        "name": "Civic Centre, stop 94",
        "coords": {
            "lat": 53.396034762414,
            "lon": -6.26437695995443
        }
    },
    {
        "id": "8220DB000102",
        "name": "Balbutcher Lane, stop 102",
        "coords": {
            "lat": 53.397773070168505,
            "lon": -6.26771985697008
        }
    },
    {
        "id": "8220DB000104",
        "name": "Poppintree Parade, stop 104",
        "coords": {
            "lat": 53.3997562075198,
            "lon": -6.276812945025231
        }
    },
    {
        "id": "8220DB000105",
        "name": "Belclare Park, stop 105",
        "coords": {
            "lat": 53.402936396684105,
            "lon": -6.281692696469441
        }
    },
    {
        "id": "8220DB000107",
        "name": "Crannogue Road, stop 107",
        "coords": {
            "lat": 53.4020356254354,
            "lon": -6.27968361815457
        }
    },
    {
        "id": "8220DB000110",
        "name": "\u00c1rd Na Meala, stop 110",
        "coords": {
            "lat": 53.397938640963794,
            "lon": -6.26860038147326
        }
    },
    {
        "id": "8220DB000112",
        "name": "Civic Centre, stop 112",
        "coords": {
            "lat": 53.3961544015487,
            "lon": -6.26395104030175
        }
    },
    {
        "id": "8220DB000113",
        "name": "Trinity Comp School, stop 113",
        "coords": {
            "lat": 53.392267962928706,
            "lon": -6.26370325464242
        }
    },
    {
        "id": "8220DB000114",
        "name": "Ballymun Road, stop 114",
        "coords": {
            "lat": 53.391333322056894,
            "lon": -6.263711229252321
        }
    },
    {
        "id": "8220DB000115",
        "name": "Ballymun Road Church, stop 115",
        "coords": {
            "lat": 53.387964091989495,
            "lon": -6.265036100481441
        }
    },
    {
        "id": "8220DB000116",
        "name": "Griffith Lawns, stop 116",
        "coords": {
            "lat": 53.37769346064611,
            "lon": -6.25966673989331
        }
    },
    {
        "id": "8220DB000117",
        "name": "Walnut Rise, stop 117",
        "coords": {
            "lat": 53.3773659067276,
            "lon": -6.2575457084552095
        }
    },
    {
        "id": "8220DB000118",
        "name": "Clare Road, stop 118",
        "coords": {
            "lat": 53.376643001693296,
            "lon": -6.25359209857676
        }
    },
    {
        "id": "8220DB000119",
        "name": "The Village, stop 119",
        "coords": {
            "lat": 53.3751904807261,
            "lon": -6.25076574528229
        }
    },
    {
        "id": "8220DB000126",
        "name": "Nursing Home, stop 126",
        "coords": {
            "lat": 53.3990954666878,
            "lon": -6.264086960560401
        }
    },
    {
        "id": "8220DB000127",
        "name": "Nursing Home, stop 127",
        "coords": {
            "lat": 53.3991075304829,
            "lon": -6.263680428239669
        }
    },
    {
        "id": "8220DB000129",
        "name": "Glasnevin Drive, stop 129",
        "coords": {
            "lat": 53.3898903154498,
            "lon": -6.27142293606873
        }
    },
    {
        "id": "8220DB000130",
        "name": "Glasnevin Park, stop 130",
        "coords": {
            "lat": 53.390092012762004,
            "lon": -6.27418126942501
        }
    },
    {
        "id": "8220DB000131",
        "name": "Willow Park Road, stop 131",
        "coords": {
            "lat": 53.390385890264795,
            "lon": -6.27834923697204
        }
    },
    {
        "id": "8220DB000133",
        "name": "Grove Park Road, stop 133",
        "coords": {
            "lat": 53.390796927590294,
            "lon": -6.286301509472881
        }
    },
    {
        "id": "8220DB000134",
        "name": "Sycamore Road, stop 134",
        "coords": {
            "lat": 53.3930945913226,
            "lon": -6.28607386543557
        }
    },
    {
        "id": "8220DB000136",
        "name": "McKee Road, stop 136",
        "coords": {
            "lat": 53.394380201391705,
            "lon": -6.28985659650005
        }
    },
    {
        "id": "8220DB000137",
        "name": "Clancy Avenue, stop 137",
        "coords": {
            "lat": 53.392316719632596,
            "lon": -6.29263079481428
        }
    },
    {
        "id": "8220DB000138",
        "name": "St Canice's BNS, stop 138",
        "coords": {
            "lat": 53.3899950092694,
            "lon": -6.29180657264737
        }
    },
    {
        "id": "8220DB000141",
        "name": "Willow Park Road, stop 141",
        "coords": {
            "lat": 53.390445085094,
            "lon": -6.2780912446871
        }
    },
    {
        "id": "8220DB000142",
        "name": "Glasnevin Park, stop 142",
        "coords": {
            "lat": 53.3901982852644,
            "lon": -6.2740717219552895
        }
    },
    {
        "id": "8220DB000143",
        "name": "Willow Park Avenue, stop 143",
        "coords": {
            "lat": 53.3898767084074,
            "lon": -6.269243369980151
        }
    },
    {
        "id": "8220DB000146",
        "name": "Na Fianna GAA Club, stop 146",
        "coords": {
            "lat": 53.3750401276344,
            "lon": -6.26509558567463
        }
    },
    {
        "id": "8220DB000147",
        "name": "Tolka Bridge, stop 147",
        "coords": {
            "lat": 53.372480226240995,
            "lon": -6.265830862123599
        }
    },
    {
        "id": "8220DB000148",
        "name": "Mobhi Road, stop 148",
        "coords": {
            "lat": 53.3706701663492,
            "lon": -6.268068507058199
        }
    },
    {
        "id": "8220DB000149",
        "name": "Tolka Bridge, stop 149",
        "coords": {
            "lat": 53.3731385872581,
            "lon": -6.26598446613774
        }
    },
    {
        "id": "8220DB000150",
        "name": "Na Fianna GAA Club, stop 150",
        "coords": {
            "lat": 53.375658846188706,
            "lon": -6.264995283028179
        }
    },
    {
        "id": "8220DB000151",
        "name": "Botanic Gardens, stop 151",
        "coords": {
            "lat": 53.3719552600216,
            "lon": -6.2692938277115
        }
    },
    {
        "id": "8220DB000153",
        "name": "Met Eireann, stop 153",
        "coords": {
            "lat": 53.375688505625895,
            "lon": -6.270134439462909
        }
    },
    {
        "id": "8220DB000154",
        "name": "St Brigid's School, stop 154",
        "coords": {
            "lat": 53.3772589962536,
            "lon": -6.27555703718647
        }
    },
    {
        "id": "8220DB000155",
        "name": "Old Finglas Road, stop 155",
        "coords": {
            "lat": 53.377874249289206,
            "lon": -6.2795755271756795
        }
    },
    {
        "id": "8220DB000156",
        "name": "Tolka Estate, stop 156",
        "coords": {
            "lat": 53.3786233900883,
            "lon": -6.28166473909488
        }
    },
    {
        "id": "8220DB000157",
        "name": "Glasilawn Road, stop 157",
        "coords": {
            "lat": 53.3804116224189,
            "lon": -6.28163782517761
        }
    },
    {
        "id": "8220DB000158",
        "name": "Griffith Road, stop 158",
        "coords": {
            "lat": 53.3814819498312,
            "lon": -6.283563954050339
        }
    },
    {
        "id": "8220DB000159",
        "name": "Griffith Parade, stop 159",
        "coords": {
            "lat": 53.382783719159605,
            "lon": -6.28283511246103
        }
    },
    {
        "id": "8220DB000164",
        "name": "Beneavin Road, stop 164",
        "coords": {
            "lat": 53.3884303639479,
            "lon": -6.28048792293041
        }
    },
    {
        "id": "8220DB000165",
        "name": "Beneavin Park, stop 165",
        "coords": {
            "lat": 53.3890348746741,
            "lon": -6.28377124881093
        }
    },
    {
        "id": "8220DB000166",
        "name": "Beneavin School, stop 166",
        "coords": {
            "lat": 53.3895835973705,
            "lon": -6.2863051485736
        }
    },
    {
        "id": "8220DB000167",
        "name": "Beneavin Road, stop 167",
        "coords": {
            "lat": 53.390186602137796,
            "lon": -6.28698758531702
        }
    },
    {
        "id": "8220DB000168",
        "name": "Beneavin Park, stop 168",
        "coords": {
            "lat": 53.3892599668895,
            "lon": -6.284423734694379
        }
    },
    {
        "id": "8220DB000169",
        "name": "Beneavin Court, stop 169",
        "coords": {
            "lat": 53.38843393467171,
            "lon": -6.280111909958491
        }
    },
    {
        "id": "8220DB000173",
        "name": "Glasnamana Place, stop 173",
        "coords": {
            "lat": 53.3821216123005,
            "lon": -6.28054674839464
        }
    },
    {
        "id": "8220DB000174",
        "name": "Tolka Estate, stop 174",
        "coords": {
            "lat": 53.3806803549497,
            "lon": -6.28095056210767
        }
    },
    {
        "id": "8220DB000175",
        "name": "Northland Grove, stop 175",
        "coords": {
            "lat": 53.37842425373321,
            "lon": -6.2815675389551
        }
    },
    {
        "id": "8220DB000176",
        "name": "Old Finglas Road, stop 176",
        "coords": {
            "lat": 53.37803204197579,
            "lon": -6.279298606078041
        }
    },
    {
        "id": "8220DB000177",
        "name": "Ballygall Rd East, stop 177",
        "coords": {
            "lat": 53.3804683765696,
            "lon": -6.276224035153789
        }
    },
    {
        "id": "8220DB000178",
        "name": "Fitzmaurice Road, stop 178",
        "coords": {
            "lat": 53.381890263171606,
            "lon": -6.27634698261821
        }
    },
    {
        "id": "8220DB000179",
        "name": "Ballygall Rd East, stop 179",
        "coords": {
            "lat": 53.3803034312785,
            "lon": -6.27600521980129
        }
    },
    {
        "id": "8220DB000181",
        "name": "Cremore Avenue, stop 181",
        "coords": {
            "lat": 53.3771498433788,
            "lon": -6.2742237068618705
        }
    },
    {
        "id": "8220DB000182",
        "name": "Met Eireann, stop 182",
        "coords": {
            "lat": 53.375656766824505,
            "lon": -6.2698050597086
        }
    },
    {
        "id": "8220DB000183",
        "name": "Botanic Gardens, stop 183",
        "coords": {
            "lat": 53.3723159291239,
            "lon": -6.268753184860341
        }
    },
    {
        "id": "8220DB000184",
        "name": "Botanic Road, stop 184",
        "coords": {
            "lat": 53.369703681984994,
            "lon": -6.268979354499249
        }
    },
    {
        "id": "8220DB000185",
        "name": "St Teresa's Place, stop 185",
        "coords": {
            "lat": 53.3681009359885,
            "lon": -6.27002113927779
        }
    },
    {
        "id": "8220DB000186",
        "name": "Lindsay Grove, stop 186",
        "coords": {
            "lat": 53.3653553426373,
            "lon": -6.27158997755113
        }
    },
    {
        "id": "8220DB000187",
        "name": "Phibsborough Road, stop 187",
        "coords": {
            "lat": 53.3627342523627,
            "lon": -6.2724473653382695
        }
    },
    {
        "id": "8220DB000188",
        "name": "North Circular Road, stop 188",
        "coords": {
            "lat": 53.3601206877577,
            "lon": -6.272583149150059
        }
    },
    {
        "id": "8220DB000189",
        "name": "Fire Station, stop 189",
        "coords": {
            "lat": 53.3571674394906,
            "lon": -6.27346881555335
        }
    },
    {
        "id": "8220DB000190",
        "name": "Broadstone, stop 190",
        "coords": {
            "lat": 53.355125730416795,
            "lon": -6.2733710740057
        }
    },
    {
        "id": "8220DB000191",
        "name": "Western Way, stop 191",
        "coords": {
            "lat": 53.355017948577796,
            "lon": -6.26903378050287
        }
    },
    {
        "id": "8220DB000192",
        "name": "Mountjoy Street, stop 192",
        "coords": {
            "lat": 53.3563972112382,
            "lon": -6.2680764696391
        }
    },
    {
        "id": "8220DB000193",
        "name": "Finglas Park, stop 193",
        "coords": {
            "lat": 53.391196305981,
            "lon": -6.2941040348739
        }
    },
    {
        "id": "8220DB000194",
        "name": "Western Way, stop 194",
        "coords": {
            "lat": 53.355040649554205,
            "lon": -6.2699793110377
        }
    },
    {
        "id": "8220DB000195",
        "name": "Broadstone, stop 195",
        "coords": {
            "lat": 53.355011777879,
            "lon": -6.27357097973092
        }
    },
    {
        "id": "8220DB000196",
        "name": "Fire Station, stop 196",
        "coords": {
            "lat": 53.356883899293,
            "lon": -6.27375070406949
        }
    },
    {
        "id": "8220DB000197",
        "name": "Monck Place, stop 197",
        "coords": {
            "lat": 53.358952631614294,
            "lon": -6.273231373511679
        }
    },
    {
        "id": "8220DB000198",
        "name": "Phibsborough SC, stop 198",
        "coords": {
            "lat": 53.361625382881,
            "lon": -6.272837810416559
        }
    },
    {
        "id": "8220DB000199",
        "name": "Munster Street, stop 199",
        "coords": {
            "lat": 53.3636218115005,
            "lon": -6.2722912462251506
        }
    },
    {
        "id": "8220DB000200",
        "name": "Prospect Way, stop 200",
        "coords": {
            "lat": 53.3674226926335,
            "lon": -6.271596443937969
        }
    },
    {
        "id": "8220DB000201",
        "name": "Botanic Road, stop 201",
        "coords": {
            "lat": 53.3682910986623,
            "lon": -6.270118626910759
        }
    },
    {
        "id": "8220DB000202",
        "name": "Fairfield Road, stop 202",
        "coords": {
            "lat": 53.3700800875522,
            "lon": -6.26890397753371
        }
    },
    {
        "id": "8220DB000203",
        "name": "Whitehall College, stop 203",
        "coords": {
            "lat": 53.3763927937161,
            "lon": -6.25001002810668
        }
    },
    {
        "id": "8220DB000204",
        "name": "Highfield Hospital, stop 204",
        "coords": {
            "lat": 53.3795883575696,
            "lon": -6.246662192737559
        }
    },
    {
        "id": "8220DB000205",
        "name": "Iveragh Road, stop 205",
        "coords": {
            "lat": 53.38137532693979,
            "lon": -6.2453260469946805
        }
    },
    {
        "id": "8220DB000206",
        "name": "Collins Avenue West, stop 206",
        "coords": {
            "lat": 53.3835460890355,
            "lon": -6.24747670792423
        }
    },
    {
        "id": "8220DB000207",
        "name": "Larkhill Road, stop 207",
        "coords": {
            "lat": 53.38482163073879,
            "lon": -6.24987478276797
        }
    },
    {
        "id": "8220DB000208",
        "name": "Glendun Road, stop 208",
        "coords": {
            "lat": 53.386653930318396,
            "lon": -6.24795040815751
        }
    },
    {
        "id": "8220DB000209",
        "name": "Larkhill Road, stop 209",
        "coords": {
            "lat": 53.3872711105316,
            "lon": -6.24591044728037
        }
    },
    {
        "id": "8220DB000210",
        "name": "Crestfield Road, stop 210",
        "coords": {
            "lat": 53.387594081275395,
            "lon": -6.24831772849051
        }
    },
    {
        "id": "8220DB000211",
        "name": "Collins Avenue, stop 211",
        "coords": {
            "lat": 53.3842808561657,
            "lon": -6.24916033059412
        }
    },
    {
        "id": "8220DB000212",
        "name": "Whitehall, stop 212",
        "coords": {
            "lat": 53.3831956351303,
            "lon": -6.24625839753317
        }
    },
    {
        "id": "8220DB000213",
        "name": "Iveragh Road, stop 213",
        "coords": {
            "lat": 53.381449544026005,
            "lon": -6.24487202356891
        }
    },
    {
        "id": "8220DB000214",
        "name": "Highfield Hospital, stop 214",
        "coords": {
            "lat": 53.3794084835756,
            "lon": -6.24665455182551
        }
    },
    {
        "id": "8220DB000215",
        "name": "Collins Avenue, stop 215",
        "coords": {
            "lat": 53.3818722870075,
            "lon": -6.242449429229441
        }
    },
    {
        "id": "8220DB000216",
        "name": "Beaumont Road, stop 216",
        "coords": {
            "lat": 53.3823308174863,
            "lon": -6.238191319693319
        }
    },
    {
        "id": "8220DB000217",
        "name": "Grace Park Court, stop 217",
        "coords": {
            "lat": 53.3843236218457,
            "lon": -6.23680112220441
        }
    },
    {
        "id": "8220DB000218",
        "name": "Shantalla Road, stop 218",
        "coords": {
            "lat": 53.3859238989727,
            "lon": -6.233788324110839
        }
    },
    {
        "id": "8220DB000220",
        "name": "Swords Road, stop 220",
        "coords": {
            "lat": 53.387940539658096,
            "lon": -6.24498084117378
        }
    },
    {
        "id": "8220DB000233",
        "name": "Beaumont Road, stop 233",
        "coords": {
            "lat": 53.3858213105816,
            "lon": -6.23353699415897
        }
    },
    {
        "id": "8220DB000234",
        "name": "Beaumont Grove, stop 234",
        "coords": {
            "lat": 53.3849504827269,
            "lon": -6.23482084271798
        }
    },
    {
        "id": "8220DB000235",
        "name": "Collinswood, stop 235",
        "coords": {
            "lat": 53.383296613184605,
            "lon": -6.237249456510531
        }
    },
    {
        "id": "8220DB000236",
        "name": "Yellow Road, stop 236",
        "coords": {
            "lat": 53.382024743098405,
            "lon": -6.2381588600378
        }
    },
    {
        "id": "8220DB000237",
        "name": "Collins Avenue, stop 237",
        "coords": {
            "lat": 53.3820319328845,
            "lon": -6.2435251997587
        }
    },
    {
        "id": "8220DB000242",
        "name": "Coolgreena Road, stop 242",
        "coords": {
            "lat": 53.385654898569896,
            "lon": -6.23201042764994
        }
    },
    {
        "id": "8220DB000243",
        "name": "Lady of Mercy, stop 243",
        "coords": {
            "lat": 53.385780060841704,
            "lon": -6.229539674546929
        }
    },
    {
        "id": "8220DB000244",
        "name": "Skelly's Lane, stop 244",
        "coords": {
            "lat": 53.3849982136881,
            "lon": -6.22349851566411
        }
    },
    {
        "id": "8220DB000245",
        "name": "Whitethorn Crescent, stop 245",
        "coords": {
            "lat": 53.3844722444229,
            "lon": -6.219566606046059
        }
    },
    {
        "id": "8220DB000246",
        "name": "Artane Castle, stop 246",
        "coords": {
            "lat": 53.3851504766498,
            "lon": -6.216230877169889
        }
    },
    {
        "id": "8220DB000247",
        "name": "Ardlea Road, stop 247",
        "coords": {
            "lat": 53.386976161061796,
            "lon": -6.21450075590271
        }
    },
    {
        "id": "8220DB000248",
        "name": "Maryfield Drive, stop 248",
        "coords": {
            "lat": 53.3855645601755,
            "lon": -6.21446963135779
        }
    },
    {
        "id": "8220DB000249",
        "name": "Artane Castle, stop 249",
        "coords": {
            "lat": 53.3849335491817,
            "lon": -6.216149744963889
        }
    },
    {
        "id": "8220DB000250",
        "name": "Skelly's Lane, stop 250",
        "coords": {
            "lat": 53.384419449981394,
            "lon": -6.220245316101299
        }
    },
    {
        "id": "8220DB000251",
        "name": "Elmount Crescent, stop 251",
        "coords": {
            "lat": 53.3848322787477,
            "lon": -6.223219786333059
        }
    },
    {
        "id": "8220DB000252",
        "name": "Lady of Mercy, stop 252",
        "coords": {
            "lat": 53.3855680158399,
            "lon": -6.22796991791535
        }
    },
    {
        "id": "8220DB000253",
        "name": "Beaumont Hospital, stop 253",
        "coords": {
            "lat": 53.389945950738706,
            "lon": -6.2243900468539906
        }
    },
    {
        "id": "8220DB000254",
        "name": "Beaumont Hospital, stop 254",
        "coords": {
            "lat": 53.3902652984461,
            "lon": -6.22410611366832
        }
    },
    {
        "id": "8220DB000255",
        "name": "Coolgreena Road, stop 255",
        "coords": {
            "lat": 53.3855938804217,
            "lon": -6.23153187241737
        }
    },
    {
        "id": "8220DB000261",
        "name": "Parnell Square East, stop 261",
        "coords": {
            "lat": 53.3540562845357,
            "lon": -6.262853361222219
        }
    },
    {
        "id": "8220DB000262",
        "name": "Parnell Square East, stop 262",
        "coords": {
            "lat": 53.35394696104179,
            "lon": -6.26275264892104
        }
    },
    {
        "id": "8220DB000263",
        "name": "Parnell Square East, stop 263",
        "coords": {
            "lat": 53.353745623497105,
            "lon": -6.26250545398005
        }
    },
    {
        "id": "8220DB000264",
        "name": "Parnell Square East, stop 264",
        "coords": {
            "lat": 53.3535353026736,
            "lon": -6.26225862681687
        }
    },
    {
        "id": "8220DB000265",
        "name": "Parnell Square East, stop 265",
        "coords": {
            "lat": 53.3533615685169,
            "lon": -6.262055380704559
        }
    },
    {
        "id": "8220DB000270",
        "name": "O'Connell St Upper, stop 270",
        "coords": {
            "lat": 53.350623391533205,
            "lon": -6.260424291634281
        }
    },
    {
        "id": "8220DB000271",
        "name": "O'Connell St Lower, stop 271",
        "coords": {
            "lat": 53.3485963625842,
            "lon": -6.25948541997207
        }
    },
    {
        "id": "8220DB000272",
        "name": "O'Connell St Upper, stop 272",
        "coords": {
            "lat": 53.3514644798942,
            "lon": -6.260780605732889
        }
    },
    {
        "id": "8220DB000273",
        "name": "O'Connell Bridge, stop 273",
        "coords": {
            "lat": 53.3472474159548,
            "lon": -6.25881940153953
        }
    },
    {
        "id": "8220DB000274",
        "name": "O'Connell St Upper, stop 274",
        "coords": {
            "lat": 53.350349083824604,
            "lon": -6.2607208686217
        }
    },
    {
        "id": "8220DB000276",
        "name": "River Road, stop 276",
        "coords": {
            "lat": 53.3774022009268,
            "lon": -6.33179658312853
        }
    },
    {
        "id": "8220DB000277",
        "name": "O'Connell St Upper, stop 277",
        "coords": {
            "lat": 53.3508223258205,
            "lon": -6.26050631978687
        }
    },
    {
        "id": "8220DB000278",
        "name": "O'Connell St Upper, stop 278",
        "coords": {
            "lat": 53.3515608719055,
            "lon": -6.261227335643119
        }
    },
    {
        "id": "8220DB000279",
        "name": "O'Connell St Upper, stop 279",
        "coords": {
            "lat": 53.350131746411705,
            "lon": -6.26060954701661
        }
    },
    {
        "id": "8220DB000281",
        "name": "O'Connell St Upper, stop 281",
        "coords": {
            "lat": 53.3513435349612,
            "lon": -6.26111600843156
        }
    },
    {
        "id": "8220DB000284",
        "name": "Rathbourne Avenue, stop 284",
        "coords": {
            "lat": 53.377282623932,
            "lon": -6.32838928381525
        }
    },
    {
        "id": "8220DB000286",
        "name": "Cathal Brugha Street, Stop No. 286",
        "coords": {
            "lat": 53.352170843741,
            "lon": -6.25991061099432
        }
    },
    {
        "id": "8220DB000288",
        "name": "Irish Life, stop 288",
        "coords": {
            "lat": 53.349168812324,
            "lon": -6.25560170347432
        }
    },
    {
        "id": "8220DB000289",
        "name": "Abbey St Lower, stop 289",
        "coords": {
            "lat": 53.3490351823495,
            "lon": -6.256298123419381
        }
    },
    {
        "id": "8220DB000291",
        "name": "Abbey St Lower, stop 291",
        "coords": {
            "lat": 53.348950400305206,
            "lon": -6.25664706494075
        }
    },
    {
        "id": "8220DB000292",
        "name": "Abbey St Lower, stop 292",
        "coords": {
            "lat": 53.349199694764,
            "lon": -6.255254959387059
        }
    },
    {
        "id": "8220DB000293",
        "name": "Abbey St Lower, stop 293",
        "coords": {
            "lat": 53.3488581695556,
            "lon": -6.25710145511171
        }
    },
    {
        "id": "8220DB000297",
        "name": "Eden Quay, stop 297",
        "coords": {
            "lat": 53.3481432679383,
            "lon": -6.256770126017081
        }
    },
    {
        "id": "8220DB000298",
        "name": "Eden Quay, stop 298",
        "coords": {
            "lat": 53.3482006633767,
            "lon": -6.25639226781078
        }
    },
    {
        "id": "8220DB000299",
        "name": "Eden Quay, stop 299",
        "coords": {
            "lat": 53.34824184744821,
            "lon": -6.256135235663309
        }
    },
    {
        "id": "8220DB000300",
        "name": "Liberty Hall, stop 300",
        "coords": {
            "lat": 53.348299240860996,
            "lon": -6.255757375774619
        }
    },
    {
        "id": "8220DB000301",
        "name": "Eden Quay, stop 301",
        "coords": {
            "lat": 53.3479883676024,
            "lon": -6.25662624092321
        }
    },
    {
        "id": "8220DB000302",
        "name": "Eden Quay, stop 302",
        "coords": {
            "lat": 53.3480380961838,
            "lon": -6.25633882037526
        }
    },
    {
        "id": "8220DB000303",
        "name": "Eden Quay, stop 303",
        "coords": {
            "lat": 53.34805999809301,
            "lon": -6.25599245267002
        }
    },
    {
        "id": "8220DB000307",
        "name": "O'Donovan Road, stop 307",
        "coords": {
            "lat": 53.3345770894681,
            "lon": -6.28008746416517
        }
    },
    {
        "id": "8220DB000308",
        "name": "Oscar Square, stop 308",
        "coords": {
            "lat": 53.336771188956796,
            "lon": -6.2795336569240305
        }
    },
    {
        "id": "8220DB000309",
        "name": "Ardee Street, stop 309",
        "coords": {
            "lat": 53.3378498917986,
            "lon": -6.2789195881599005
        }
    },
    {
        "id": "8220DB000312",
        "name": "Wellington Quay, stop 312",
        "coords": {
            "lat": 53.3454764728287,
            "lon": -6.26620615548425
        }
    },
    {
        "id": "8220DB000313",
        "name": "Bachelors Walk, stop 313",
        "coords": {
            "lat": 53.3469069007469,
            "lon": -6.26197249771067
        }
    },
    {
        "id": "8220DB000315",
        "name": "Bachelors Walk, stop 315",
        "coords": {
            "lat": 53.3470973047636,
            "lon": -6.2614690836473
        }
    },
    {
        "id": "8220DB000317",
        "name": "Westmoreland Street, stop 317",
        "coords": {
            "lat": 53.346525944452104,
            "lon": -6.259269366244769
        }
    },
    {
        "id": "8220DB000318",
        "name": "Westmoreland Street, stop 318",
        "coords": {
            "lat": 53.346417713119294,
            "lon": -6.25924373595412
        }
    },
    {
        "id": "8220DB000319",
        "name": "Westmoreland Street, stop 319",
        "coords": {
            "lat": 53.3462744267355,
            "lon": -6.25927961394872
        }
    },
    {
        "id": "8220DB000320",
        "name": "Westmoreland Street, stop 320",
        "coords": {
            "lat": 53.3456456323913,
            "lon": -6.25930523253443
        }
    },
    {
        "id": "8220DB000322",
        "name": "Gulliver's Retail Pk, stop 322",
        "coords": {
            "lat": 53.404254992466896,
            "lon": -6.265350845321809
        }
    },
    {
        "id": "8220DB000325",
        "name": "Aston Quay, stop 325",
        "coords": {
            "lat": 53.3466970502557,
            "lon": -6.25990825953705
        }
    },
    {
        "id": "8220DB000326",
        "name": "Aston Quay, stop 326",
        "coords": {
            "lat": 53.3465535364808,
            "lon": -6.260544947224551
        }
    },
    {
        "id": "8220DB000328",
        "name": "Aston Quay, stop 328",
        "coords": {
            "lat": 53.34634998364321,
            "lon": -6.2613793338963095
        }
    },
    {
        "id": "8220DB000329",
        "name": "Aston Quay, stop 329",
        "coords": {
            "lat": 53.346318864463704,
            "lon": -6.2617110397058
        }
    },
    {
        "id": "8220DB000333",
        "name": "D'Olier Street, stop 333",
        "coords": {
            "lat": 53.34669223659329,
            "lon": -6.25834636399192
        }
    },
    {
        "id": "8220DB000334",
        "name": "D'Olier Street, stop 334",
        "coords": {
            "lat": 53.346581156207506,
            "lon": -6.25812559112211
        }
    },
    {
        "id": "8220DB000335",
        "name": "D'Olier Street, stop 335",
        "coords": {
            "lat": 53.3463614054442,
            "lon": -6.25784917048533
        }
    },
    {
        "id": "8220DB000336",
        "name": "D'Olier Street, stop 336",
        "coords": {
            "lat": 53.3462516394318,
            "lon": -6.25771846673942
        }
    },
    {
        "id": "8220DB000340",
        "name": "Townsend Street, stop 340",
        "coords": {
            "lat": 53.3460128066393,
            "lon": -6.25613609916839
        }
    },
    {
        "id": "8220DB000342",
        "name": "College Street, stop 342",
        "coords": {
            "lat": 53.3455641183199,
            "lon": -6.256800260758129
        }
    },
    {
        "id": "8220DB000345",
        "name": "Pearse St Garda Stn, stop 345",
        "coords": {
            "lat": 53.3454758154714,
            "lon": -6.25629319407125
        }
    },
    {
        "id": "8220DB000346",
        "name": "Pearse St Garda Stn, stop 346",
        "coords": {
            "lat": 53.3455443981674,
            "lon": -6.2566809076364995
        }
    },
    {
        "id": "8220DB000350",
        "name": "Prince's St South, stop 350",
        "coords": {
            "lat": 53.34563194158421,
            "lon": -6.24976824959419
        }
    },
    {
        "id": "8220DB000351",
        "name": "Erne Street, stop 351",
        "coords": {
            "lat": 53.3434182647933,
            "lon": -6.24530817378356
        }
    },
    {
        "id": "8220DB000352",
        "name": "Pearse Square, stop 352",
        "coords": {
            "lat": 53.342989145805596,
            "lon": -6.242412139989849
        }
    },
    {
        "id": "8220DB000353",
        "name": "Grand Canal Quay, stop 353",
        "coords": {
            "lat": 53.3426158463834,
            "lon": -6.23964903171018
        }
    },
    {
        "id": "8220DB000354",
        "name": "Ringsend Road, stop 354",
        "coords": {
            "lat": 53.34223582802,
            "lon": -6.23643568982665
        }
    },
    {
        "id": "8220DB000355",
        "name": "Ringsend Garage, stop 355",
        "coords": {
            "lat": 53.341817347783795,
            "lon": -6.233058790692941
        }
    },
    {
        "id": "8220DB000356",
        "name": "Ringsend, stop 356",
        "coords": {
            "lat": 53.3419030234443,
            "lon": -6.22671744313459
        }
    },
    {
        "id": "8220DB000357",
        "name": "Irishtown Road, stop 357",
        "coords": {
            "lat": 53.3391710439696,
            "lon": -6.2231214748985195
        }
    },
    {
        "id": "8220DB000371",
        "name": "Irishtown Road, stop 371",
        "coords": {
            "lat": 53.338612780739496,
            "lon": -6.223054582534161
        }
    },
    {
        "id": "8220DB000372",
        "name": "Star of the Sea, stop 372",
        "coords": {
            "lat": 53.335488146952706,
            "lon": -6.219655671448951
        }
    },
    {
        "id": "8220DB000373",
        "name": "Farney Park, stop 373",
        "coords": {
            "lat": 53.3342753312741,
            "lon": -6.217889272596481
        }
    },
    {
        "id": "8220DB000374",
        "name": "Sandymount, stop 374",
        "coords": {
            "lat": 53.3332284399034,
            "lon": -6.216401342119171
        }
    },
    {
        "id": "8220DB000375",
        "name": "Dromard Terrace, stop 375",
        "coords": {
            "lat": 53.3340611346546,
            "lon": -6.21438451306244
        }
    },
    {
        "id": "8220DB000376",
        "name": "Lea Road, stop 376",
        "coords": {
            "lat": 53.3307125262278,
            "lon": -6.20925426461614
        }
    },
    {
        "id": "8220DB000377",
        "name": "Gilford Road, stop 377",
        "coords": {
            "lat": 53.328728929233506,
            "lon": -6.2088418953406705
        }
    },
    {
        "id": "8220DB000378",
        "name": "Sandymount Tower, stop 378",
        "coords": {
            "lat": 53.3256502919051,
            "lon": -6.2073344720141606
        }
    },
    {
        "id": "8220DB000380",
        "name": "St John's Road, stop 380",
        "coords": {
            "lat": 53.3247260855166,
            "lon": -6.20923477230433
        }
    },
    {
        "id": "8220DB000381",
        "name": "St John's Church, stop 381",
        "coords": {
            "lat": 53.3243237661094,
            "lon": -6.21237419337661
        }
    },
    {
        "id": "8220DB000382",
        "name": "St John's Road, stop 382",
        "coords": {
            "lat": 53.3250628541644,
            "lon": -6.20771940485297
        }
    },
    {
        "id": "8220DB000383",
        "name": "Gilford Road, stop 383",
        "coords": {
            "lat": 53.3286049757757,
            "lon": -6.20896719963214
        }
    },
    {
        "id": "8220DB000384",
        "name": "Lea Road, stop 384",
        "coords": {
            "lat": 53.331633952394895,
            "lon": -6.2101616048599
        }
    },
    {
        "id": "8220DB000385",
        "name": "Newgrove Avenue, stop 385",
        "coords": {
            "lat": 53.33235102312079,
            "lon": -6.211227687939969
        }
    },
    {
        "id": "8220DB000387",
        "name": "Sandymount, stop 387",
        "coords": {
            "lat": 53.332499510202105,
            "lon": -6.21574105767743
        }
    },
    {
        "id": "8220DB000388",
        "name": "Farney Park, stop 388",
        "coords": {
            "lat": 53.3345088619679,
            "lon": -6.218480172552071
        }
    },
    {
        "id": "8220DB000389",
        "name": "Star of the Sea, stop 389",
        "coords": {
            "lat": 53.335290081799,
            "lon": -6.21963388936857
        }
    },
    {
        "id": "8220DB000390",
        "name": "Tritonville Road, stop 390",
        "coords": {
            "lat": 53.337629913787296,
            "lon": -6.2222394793376505
        }
    },
    {
        "id": "8220DB000391",
        "name": "Bath Street, stop 391",
        "coords": {
            "lat": 53.340063855474995,
            "lon": -6.2239253518331905
        }
    },
    {
        "id": "8220DB000392",
        "name": "Ringsend, stop 392",
        "coords": {
            "lat": 53.341733631169205,
            "lon": -6.22741532105916
        }
    },
    {
        "id": "8220DB000393",
        "name": "Tritonville Road, stop 393",
        "coords": {
            "lat": 53.33690388771971,
            "lon": -6.222374796852571
        }
    },
    {
        "id": "8220DB000395",
        "name": "Ringsend Road, stop 395",
        "coords": {
            "lat": 53.341940053567804,
            "lon": -6.2352764544162795
        }
    },
    {
        "id": "8220DB000396",
        "name": "Grand Canal Quay, stop 396",
        "coords": {
            "lat": 53.3424615903765,
            "lon": -6.239550255947879
        }
    },
    {
        "id": "8220DB000397",
        "name": "Pearse Square, stop 397",
        "coords": {
            "lat": 53.342785555443,
            "lon": -6.242015007307559
        }
    },
    {
        "id": "8220DB000398",
        "name": "Erne Street, stop 398",
        "coords": {
            "lat": 53.343294935038394,
            "lon": -6.24547844686784
        }
    },
    {
        "id": "8220DB000399",
        "name": "Pearse Station, stop 399",
        "coords": {
            "lat": 53.34386682210871,
            "lon": -6.248308601432201
        }
    },
    {
        "id": "8220DB000400",
        "name": "Shaw Street, stop 400",
        "coords": {
            "lat": 53.344846483913,
            "lon": -6.25320984701663
        }
    },
    {
        "id": "8220DB000404",
        "name": "Nassau Street, stop 404",
        "coords": {
            "lat": 53.34266333251289,
            "lon": -6.256347892394249
        }
    },
    {
        "id": "8220DB000405",
        "name": "Nassau Street, stop 405",
        "coords": {
            "lat": 53.342481689184,
            "lon": -6.2556043726642505
        }
    },
    {
        "id": "8220DB000406",
        "name": "Nassau Street, stop 406",
        "coords": {
            "lat": 53.3426061451661,
            "lon": -6.2561249457825605
        }
    },
    {
        "id": "8220DB000407",
        "name": "Custom House, stop 407",
        "coords": {
            "lat": 53.3483795866704,
            "lon": -6.253876505995059
        }
    },
    {
        "id": "8220DB000408",
        "name": "Merrion Sq North, stop 408",
        "coords": {
            "lat": 53.34097078262629,
            "lon": -6.250019239576369
        }
    },
    {
        "id": "8220DB000409",
        "name": "Holles Street, stop 409",
        "coords": {
            "lat": 53.3401367313194,
            "lon": -6.247695595569709
        }
    },
    {
        "id": "8220DB000410",
        "name": "Mount Street Lower, stop 410",
        "coords": {
            "lat": 53.338813450866006,
            "lon": -6.24389039032323
        }
    },
    {
        "id": "8220DB000411",
        "name": "Mount Street Bridge, stop 411",
        "coords": {
            "lat": 53.338117119223696,
            "lon": -6.24177155350135
        }
    },
    {
        "id": "8220DB000412",
        "name": "Haddington Road, stop 412",
        "coords": {
            "lat": 53.3352555102392,
            "lon": -6.237279319056151
        }
    },
    {
        "id": "8220DB000413",
        "name": "Lansdowne Park, stop 413",
        "coords": {
            "lat": 53.3340941933076,
            "lon": -6.236546394051469
        }
    },
    {
        "id": "8220DB000414",
        "name": "Lansdowne Road, stop 414",
        "coords": {
            "lat": 53.3315738058974,
            "lon": -6.23447321695269
        }
    },
    {
        "id": "8220DB000415",
        "name": "American Embassy, stop 415",
        "coords": {
            "lat": 53.3303378154095,
            "lon": -6.23294774966432
        }
    },
    {
        "id": "8220DB000416",
        "name": "RDS Ballsbridge, stop 416",
        "coords": {
            "lat": 53.328639920120104,
            "lon": -6.22936956914697
        }
    },
    {
        "id": "8220DB000417",
        "name": "Merrion Road, stop 417",
        "coords": {
            "lat": 53.32769958565329,
            "lon": -6.22597042048849
        }
    },
    {
        "id": "8220DB000418",
        "name": "British Embassy, stop 418",
        "coords": {
            "lat": 53.325719810514094,
            "lon": -6.223395297526129
        }
    },
    {
        "id": "8220DB000419",
        "name": "Shrewsbury Park, stop 419",
        "coords": {
            "lat": 53.323995105844496,
            "lon": -6.22044950312346
        }
    },
    {
        "id": "8220DB000420",
        "name": "Merlyn Road, stop 420",
        "coords": {
            "lat": 53.321910801291295,
            "lon": -6.217503921727429
        }
    },
    {
        "id": "8220DB000421",
        "name": "Merrion View Avenue, stop 421",
        "coords": {
            "lat": 53.32000517942429,
            "lon": -6.214491120422361
        }
    },
    {
        "id": "8220DB000422",
        "name": "St Vincent's Hosp, stop 422",
        "coords": {
            "lat": 53.318064191865794,
            "lon": -6.21032428070776
        }
    },
    {
        "id": "8220DB000423",
        "name": "Herbert Avenue, stop 423",
        "coords": {
            "lat": 53.317148504137,
            "lon": -6.20740565828112
        }
    },
    {
        "id": "8220DB000424",
        "name": "Merrion Gates, stop 424",
        "coords": {
            "lat": 53.3153943802017,
            "lon": -6.20372686621338
        }
    },
    {
        "id": "8220DB000476",
        "name": "Merrion Gates, stop 476",
        "coords": {
            "lat": 53.315751526373504,
            "lon": -6.2047625227325796
        }
    },
    {
        "id": "8220DB000477",
        "name": "Herbert Avenue, stop 477",
        "coords": {
            "lat": 53.31686305468511,
            "lon": -6.2069523200932695
        }
    },
    {
        "id": "8220DB000478",
        "name": "St Vincent's Hosp, stop 478",
        "coords": {
            "lat": 53.318114298918296,
            "lon": -6.21126782530883
        }
    },
    {
        "id": "8220DB000479",
        "name": "Merrion Centre, stop 479",
        "coords": {
            "lat": 53.319143967623795,
            "lon": -6.21340128669965
        }
    },
    {
        "id": "8220DB000480",
        "name": "Netherlands Embassy, stop 480",
        "coords": {
            "lat": 53.32084997999001,
            "lon": -6.216287205367651
        }
    },
    {
        "id": "8220DB000481",
        "name": "Wanderers FC, stop 481",
        "coords": {
            "lat": 53.3223446397574,
            "lon": -6.21826644297952
        }
    },
    {
        "id": "8220DB000482",
        "name": "Shrewsbury Road, stop 482",
        "coords": {
            "lat": 53.3247277780876,
            "lon": -6.22196529496766
        }
    },
    {
        "id": "8220DB000483",
        "name": "British Embassy, stop 483",
        "coords": {
            "lat": 53.3259441074967,
            "lon": -6.223971480523231
        }
    },
    {
        "id": "8220DB000485",
        "name": "RDS Ballsbridge, stop 485",
        "coords": {
            "lat": 53.3282515101299,
            "lon": -6.22863497077614
        }
    },
    {
        "id": "8220DB000487",
        "name": "American Embassy, stop 487",
        "coords": {
            "lat": 53.3308552893834,
            "lon": -6.2339023083720395
        }
    },
    {
        "id": "8220DB000488",
        "name": "Lansdowne Park, stop 488",
        "coords": {
            "lat": 53.333098554631995,
            "lon": -6.236076947011019
        }
    },
    {
        "id": "8220DB000489",
        "name": "St Mary's Rd South, stop 489",
        "coords": {
            "lat": 53.334942003147795,
            "lon": -6.237352312656149
        }
    },
    {
        "id": "8220DB000490",
        "name": "Haddington Road, stop 490",
        "coords": {
            "lat": 53.336573841915396,
            "lon": -6.23890680600162
        }
    },
    {
        "id": "8220DB000491",
        "name": "Mount Street Bridge, stop 491",
        "coords": {
            "lat": 53.33781405351171,
            "lon": -6.24133351088669
        }
    },
    {
        "id": "8220DB000492",
        "name": "Mount Street Lower, stop 492",
        "coords": {
            "lat": 53.3385846851446,
            "lon": -6.24361446215904
        }
    },
    {
        "id": "8220DB000493",
        "name": "Holles Street, stop 493",
        "coords": {
            "lat": 53.3398534163799,
            "lon": -6.24737682273893
        }
    },
    {
        "id": "8220DB000494",
        "name": "Clare Street, stop 494",
        "coords": {
            "lat": 53.341435583359,
            "lon": -6.25168225233912
        }
    },
    {
        "id": "8220DB000495",
        "name": "Pearse Station, stop 495",
        "coords": {
            "lat": 53.3435913198155,
            "lon": -6.24974670516899
        }
    },
    {
        "id": "8220DB000496",
        "name": "Bus\u00e1ras, stop 496",
        "coords": {
            "lat": 53.3494968761366,
            "lon": -6.2522235786816
        }
    },
    {
        "id": "8220DB000497",
        "name": "Connolly, stop 497",
        "coords": {
            "lat": 53.3505260754016,
            "lon": -6.25069434322377
        }
    },
    {
        "id": "8220DB000499",
        "name": "Summerhill Parade, stop 499",
        "coords": {
            "lat": 53.357450338618605,
            "lon": -6.249088626862191
        }
    },
    {
        "id": "8220DB000500",
        "name": "Ballybough Road, stop 500",
        "coords": {
            "lat": 53.359036076320294,
            "lon": -6.246289155281779
        }
    },
    {
        "id": "8220DB000501",
        "name": "Clonliffe Avenue, stop 501",
        "coords": {
            "lat": 53.3607056846908,
            "lon": -6.24369637425139
        }
    },
    {
        "id": "8220DB000509",
        "name": "Ballybough Road, stop 509",
        "coords": {
            "lat": 53.360601349361495,
            "lon": -6.24332503950189
        }
    },
    {
        "id": "8220DB000510",
        "name": "Charleville Avenue, stop 510",
        "coords": {
            "lat": 53.3591893775426,
            "lon": -6.245711927237361
        }
    },
    {
        "id": "8220DB000511",
        "name": "Summerhill Parade, stop 511",
        "coords": {
            "lat": 53.3575155897157,
            "lon": -6.248635233370191
        }
    },
    {
        "id": "8220DB000513",
        "name": "Rutland Street, stop 513",
        "coords": {
            "lat": 53.35521196298411,
            "lon": -6.25397276810393
        }
    },
    {
        "id": "8220DB000515",
        "name": "Portland Row, stop 515",
        "coords": {
            "lat": 53.3535348728268,
            "lon": -6.24809240079494
        }
    },
    {
        "id": "8220DB000516",
        "name": "North Strand Road, stop 516",
        "coords": {
            "lat": 53.3556839194156,
            "lon": -6.24570568436261
        }
    },
    {
        "id": "8220DB000518",
        "name": "Waterloo Avenue, stop 518",
        "coords": {
            "lat": 53.358904162431,
            "lon": -6.24099094394505
        }
    },
    {
        "id": "8220DB000519",
        "name": "North Strand Road, stop 519",
        "coords": {
            "lat": 53.3603387601192,
            "lon": -6.239534528658919
        }
    },
    {
        "id": "8220DB000521",
        "name": "Annesley Bridge Road, stop 521",
        "coords": {
            "lat": 53.3616370470509,
            "lon": -6.237978460685481
        }
    },
    {
        "id": "8220DB000522",
        "name": "Fairview, stop 522",
        "coords": {
            "lat": 53.3632889490314,
            "lon": -6.23541597469792
        }
    },
    {
        "id": "8220DB000523",
        "name": "Marino College, stop 523",
        "coords": {
            "lat": 53.36428545371471,
            "lon": -6.23169333166141
        }
    },
    {
        "id": "8220DB000525",
        "name": "Howth Road, stop 525",
        "coords": {
            "lat": 53.364960873513695,
            "lon": -6.226330911163111
        }
    },
    {
        "id": "8220DB000526",
        "name": "Copeland Grove, stop 526",
        "coords": {
            "lat": 53.366869572150705,
            "lon": -6.22111227858026
        }
    },
    {
        "id": "8220DB000527",
        "name": "St Lawrence Road, stop 527",
        "coords": {
            "lat": 53.3680198762304,
            "lon": -6.21267888054439
        }
    },
    {
        "id": "8220DB000528",
        "name": "Castle Grove, stop 528",
        "coords": {
            "lat": 53.3692640807,
            "lon": -6.20993674463172
        }
    },
    {
        "id": "8220DB000529",
        "name": "Collins Avenue, stop 529",
        "coords": {
            "lat": 53.3705774149481,
            "lon": -6.20761234516723
        }
    },
    {
        "id": "8220DB000530",
        "name": "Killester, stop 530",
        "coords": {
            "lat": 53.3712245323475,
            "lon": -6.20402332968275
        }
    },
    {
        "id": "8220DB000531",
        "name": "The Demesne, stop 531",
        "coords": {
            "lat": 53.3732509125134,
            "lon": -6.20130788472607
        }
    },
    {
        "id": "8220DB000532",
        "name": "The Meadows, stop 532",
        "coords": {
            "lat": 53.375802080406196,
            "lon": -6.19347468575645
        }
    },
    {
        "id": "8220DB000533",
        "name": "Ennafort Park, stop 533",
        "coords": {
            "lat": 53.3775832778058,
            "lon": -6.18705613952435
        }
    },
    {
        "id": "8220DB000534",
        "name": "Cill Eanna, stop 534",
        "coords": {
            "lat": 53.3787502415627,
            "lon": -6.1816402899894
        }
    },
    {
        "id": "8220DB000535",
        "name": "Raheny, stop 535",
        "coords": {
            "lat": 53.3802570730373,
            "lon": -6.177306957113661
        }
    },
    {
        "id": "8220DB000536",
        "name": "Raheny Library, stop 536",
        "coords": {
            "lat": 53.380423756711,
            "lon": -6.17351172677598
        }
    },
    {
        "id": "8220DB000537",
        "name": "Avondale Park, stop 537",
        "coords": {
            "lat": 53.3799012003082,
            "lon": -6.168152634977179
        }
    },
    {
        "id": "8220DB000538",
        "name": "Maywood, stop 538",
        "coords": {
            "lat": 53.3801380645897,
            "lon": -6.164264183188469
        }
    },
    {
        "id": "8220DB000539",
        "name": "Foxfield, stop 539",
        "coords": {
            "lat": 53.380673661813,
            "lon": -6.159355641537499
        }
    },
    {
        "id": "8220DB000540",
        "name": "Blackbanks Coast, stop 540",
        "coords": {
            "lat": 53.3813362763715,
            "lon": -6.15511794353322
        }
    },
    {
        "id": "8220DB000541",
        "name": "James Larkin Road, stop 541",
        "coords": {
            "lat": 53.381872707753296,
            "lon": -6.152028068446571
        }
    },
    {
        "id": "8220DB000542",
        "name": "Blackbanks, stop 542",
        "coords": {
            "lat": 53.3836619200484,
            "lon": -6.1462679499289905
        }
    },
    {
        "id": "8220DB000591",
        "name": "Kilbarrack Road, stop 591",
        "coords": {
            "lat": 53.3841675899819,
            "lon": -6.1446824866416
        }
    },
    {
        "id": "8220DB000592",
        "name": "James Larkin Road, stop 592",
        "coords": {
            "lat": 53.3827330098133,
            "lon": -6.14838287246937
        }
    },
    {
        "id": "8220DB000593",
        "name": "Blackbanks, stop 593",
        "coords": {
            "lat": 53.3818486949724,
            "lon": -6.151638257164099
        }
    },
    {
        "id": "8220DB000594",
        "name": "Howth Road, stop 594",
        "coords": {
            "lat": 53.38116336556029,
            "lon": -6.155561362132549
        }
    },
    {
        "id": "8220DB000595",
        "name": "Foxfield, stop 595",
        "coords": {
            "lat": 53.3805999504448,
            "lon": -6.15923856299824
        }
    },
    {
        "id": "8220DB000596",
        "name": "The Old Shieling, stop 596",
        "coords": {
            "lat": 53.38025284332729,
            "lon": -6.16179397207683
        }
    },
    {
        "id": "8220DB000597",
        "name": "Maywood, stop 597",
        "coords": {
            "lat": 53.379898135843604,
            "lon": -6.165612355367269
        }
    },
    {
        "id": "8220DB000598",
        "name": "Avondale Park, stop 598",
        "coords": {
            "lat": 53.379846629562905,
            "lon": -6.1692823774202505
        }
    },
    {
        "id": "8220DB000599",
        "name": "Raheny Library, stop 599",
        "coords": {
            "lat": 53.380300318921,
            "lon": -6.17308107835297
        }
    },
    {
        "id": "8220DB000600",
        "name": "Raheny, stop 600",
        "coords": {
            "lat": 53.3802479252415,
            "lon": -6.1761198105253206
        }
    },
    {
        "id": "8220DB000601",
        "name": "Cill Eanna, stop 601",
        "coords": {
            "lat": 53.3792234833207,
            "lon": -6.17966599663786
        }
    },
    {
        "id": "8220DB000602",
        "name": "Wade's Avenue, stop 602",
        "coords": {
            "lat": 53.3781425247933,
            "lon": -6.1830490710098305
        }
    },
    {
        "id": "8220DB000603",
        "name": "Ennafort Park, stop 603",
        "coords": {
            "lat": 53.3773821590119,
            "lon": -6.18742542966489
        }
    },
    {
        "id": "8220DB000604",
        "name": "Ennafort Road, stop 604",
        "coords": {
            "lat": 53.3763546440125,
            "lon": -6.190790859734401
        }
    },
    {
        "id": "8220DB000605",
        "name": "The Meadows, stop 605",
        "coords": {
            "lat": 53.3756666621091,
            "lon": -6.193435326606389
        }
    },
    {
        "id": "8220DB000606",
        "name": "St Bridgets Church, stop 606",
        "coords": {
            "lat": 53.3747089784039,
            "lon": -6.19786466034232
        }
    },
    {
        "id": "8220DB000607",
        "name": "The Demense, stop 607",
        "coords": {
            "lat": 53.3725157799941,
            "lon": -6.2020302137195005
        }
    },
    {
        "id": "8220DB000608",
        "name": "Killester, stop 608",
        "coords": {
            "lat": 53.371078384466294,
            "lon": -6.204465314765559
        }
    },
    {
        "id": "8220DB000609",
        "name": "Castle Grove, stop 609",
        "coords": {
            "lat": 53.3698375440806,
            "lon": -6.2086202564896205
        }
    },
    {
        "id": "8220DB000610",
        "name": "Ashbrook, stop 610",
        "coords": {
            "lat": 53.3683623013095,
            "lon": -6.211537455274321
        }
    },
    {
        "id": "8220DB000611",
        "name": "Hollybrook Park, stop 611",
        "coords": {
            "lat": 53.3667546791219,
            "lon": -6.2188329221112895
        }
    },
    {
        "id": "8220DB000612",
        "name": "Copeland Avenue, stop 612",
        "coords": {
            "lat": 53.3657562265207,
            "lon": -6.22420912998324
        }
    },
    {
        "id": "8220DB000613",
        "name": "Marino Crescent Park, stop 613",
        "coords": {
            "lat": 53.364617470991895,
            "lon": -6.226810998384559
        }
    },
    {
        "id": "8220DB000614",
        "name": "Fairview, stop 614",
        "coords": {
            "lat": 53.3636380024156,
            "lon": -6.23349323029591
        }
    },
    {
        "id": "8220DB000615",
        "name": "Annesley Bridge, stop 615",
        "coords": {
            "lat": 53.3619064164568,
            "lon": -6.23735129893029
        }
    },
    {
        "id": "8220DB000616",
        "name": "Nth Strand Fire Stn, stop 616",
        "coords": {
            "lat": 53.35984471380571,
            "lon": -6.23955489630255
        }
    },
    {
        "id": "8220DB000617",
        "name": "Strandville Avenue, stop 617",
        "coords": {
            "lat": 53.3578945210736,
            "lon": -6.24200909637442
        }
    },
    {
        "id": "8220DB000618",
        "name": "Newcomen Bridge, stop 618",
        "coords": {
            "lat": 53.35610117796929,
            "lon": -6.244742067603201
        }
    },
    {
        "id": "8220DB000619",
        "name": "Amiens Street, stop 619",
        "coords": {
            "lat": 53.354044625043,
            "lon": -6.24730533351979
        }
    },
    {
        "id": "8220DB000620",
        "name": "Talbot Street, stop 620",
        "coords": {
            "lat": 53.350961094443704,
            "lon": -6.252779556903441
        }
    },
    {
        "id": "8220DB000621",
        "name": "Talbot Street, stop 621",
        "coords": {
            "lat": 53.350517775917595,
            "lon": -6.25626764847559
        }
    },
    {
        "id": "8220DB000624",
        "name": "Ribh Road, stop 624",
        "coords": {
            "lat": 53.38018530713321,
            "lon": -6.18912523804644
        }
    },
    {
        "id": "8220DB000625",
        "name": "Lein Gardens, stop 625",
        "coords": {
            "lat": 53.3817875653858,
            "lon": -6.18632129728294
        }
    },
    {
        "id": "8220DB000626",
        "name": "Edenmore Green, stop 626",
        "coords": {
            "lat": 53.3844945184184,
            "lon": -6.184056419159
        }
    },
    {
        "id": "8220DB000627",
        "name": "Edenmore Green, stop 627",
        "coords": {
            "lat": 53.38540701702029,
            "lon": -6.18200303261629
        }
    },
    {
        "id": "8220DB000628",
        "name": "Edenmore Grove, stop 628",
        "coords": {
            "lat": 53.3869549963236,
            "lon": -6.1839065792035495
        }
    },
    {
        "id": "8220DB000629",
        "name": "Edenmore Drive, stop 629",
        "coords": {
            "lat": 53.3865279695261,
            "lon": -6.18596942471487
        }
    },
    {
        "id": "8220DB000630",
        "name": "Springdale Road, stop 630",
        "coords": {
            "lat": 53.3872439958543,
            "lon": -6.1893217522728206
        }
    },
    {
        "id": "8220DB000633",
        "name": "Tonlegee Drive, stop 633",
        "coords": {
            "lat": 53.3896443404853,
            "lon": -6.18935518044474
        }
    },
    {
        "id": "8220DB000634",
        "name": "Tonlegee Avenue, stop 634",
        "coords": {
            "lat": 53.3902751966557,
            "lon": -6.184141109209981
        }
    },
    {
        "id": "8220DB000635",
        "name": "Glenwood Road, stop 635",
        "coords": {
            "lat": 53.3890225360691,
            "lon": -6.18392380127641
        }
    },
    {
        "id": "8220DB000636",
        "name": "Glenfarne Road, stop 636",
        "coords": {
            "lat": 53.3888586595197,
            "lon": -6.18674234809091
        }
    },
    {
        "id": "8220DB000637",
        "name": "Springdale Road, stop 637",
        "coords": {
            "lat": 53.3877918262056,
            "lon": -6.18988485424514
        }
    },
    {
        "id": "8220DB000638",
        "name": "Edenmore Avenue, stop 638",
        "coords": {
            "lat": 53.3867623213274,
            "lon": -6.18837999607747
        }
    },
    {
        "id": "8220DB000639",
        "name": "Edenmore Park, stop 639",
        "coords": {
            "lat": 53.3863330185355,
            "lon": -6.1867444607558895
        }
    },
    {
        "id": "8220DB000640",
        "name": "Edenmore Grove, stop 640",
        "coords": {
            "lat": 53.3867053852028,
            "lon": -6.18345113980018
        }
    },
    {
        "id": "8220DB000641",
        "name": "Edenmore Green, stop 641",
        "coords": {
            "lat": 53.38582638284839,
            "lon": -6.182391081461871
        }
    },
    {
        "id": "8220DB000642",
        "name": "Edenmore Green, stop 642",
        "coords": {
            "lat": 53.3847318483083,
            "lon": -6.18311422897609
        }
    },
    {
        "id": "8220DB000643",
        "name": "St Josephs Hospital, stop 643",
        "coords": {
            "lat": 53.3835661358844,
            "lon": -6.183885468341019
        }
    },
    {
        "id": "8220DB000644",
        "name": "Lein Park, stop 644",
        "coords": {
            "lat": 53.3823625142349,
            "lon": -6.185710576646089
        }
    },
    {
        "id": "8220DB000645",
        "name": "Ribh Road, stop 645",
        "coords": {
            "lat": 53.3801688019276,
            "lon": -6.188629880486209
        }
    },
    {
        "id": "8220DB000649",
        "name": "All Saints Road, stop 649",
        "coords": {
            "lat": 53.3762836659138,
            "lon": -6.18966656708737
        }
    },
    {
        "id": "8220DB000650",
        "name": "Sybil Hill Avenue, stop 650",
        "coords": {
            "lat": 53.37540285373711,
            "lon": -6.185525483233781
        }
    },
    {
        "id": "8220DB000651",
        "name": "All Saints Park, stop 651",
        "coords": {
            "lat": 53.37547945077479,
            "lon": -6.17993090906123
        }
    },
    {
        "id": "8220DB000653",
        "name": "Raheny, stop 653",
        "coords": {
            "lat": 53.3794630466278,
            "lon": -6.1753416389621405
        }
    },
    {
        "id": "8220DB000654",
        "name": "Watermill Road, stop 654",
        "coords": {
            "lat": 53.379210075801296,
            "lon": -6.177020980830701
        }
    },
    {
        "id": "8220DB000655",
        "name": "Watermill Drive, stop 655",
        "coords": {
            "lat": 53.377738671387995,
            "lon": -6.1754304023287405
        }
    },
    {
        "id": "8220DB000656",
        "name": "St Anne's Avenue, stop 656",
        "coords": {
            "lat": 53.3764702007995,
            "lon": -6.17770919175959
        }
    },
    {
        "id": "8220DB000657",
        "name": "All Saints Park, stop 657",
        "coords": {
            "lat": 53.3755453978811,
            "lon": -6.17895111704471
        }
    },
    {
        "id": "8220DB000658",
        "name": "All Saints Road, stop 658",
        "coords": {
            "lat": 53.374980048484794,
            "lon": -6.18313861991678
        }
    },
    {
        "id": "8220DB000659",
        "name": "Sybil Hill Avenue, stop 659",
        "coords": {
            "lat": 53.375237440683605,
            "lon": -6.185878213489831
        }
    },
    {
        "id": "8220DB000664",
        "name": "Donnycarney Church, stop 664",
        "coords": {
            "lat": 53.3747192481277,
            "lon": -6.21950756213928
        }
    },
    {
        "id": "8220DB000665",
        "name": "Casino Park, stop 665",
        "coords": {
            "lat": 53.3724663177962,
            "lon": -6.22212646122617
        }
    },
    {
        "id": "8220DB000666",
        "name": "Mount Temple School, stop 666",
        "coords": {
            "lat": 53.370233124124205,
            "lon": -6.22426334784648
        }
    },
    {
        "id": "8220DB000667",
        "name": "Brian Road, stop 667",
        "coords": {
            "lat": 53.3679816454687,
            "lon": -6.226986846511361
        }
    },
    {
        "id": "8220DB000668",
        "name": "Marino Crescent Park, stop 668",
        "coords": {
            "lat": 53.3645749808616,
            "lon": -6.2293973168947
        }
    },
    {
        "id": "8220DB000669",
        "name": "Malahide Road, stop 669",
        "coords": {
            "lat": 53.3663170047536,
            "lon": -6.2286789053178
        }
    },
    {
        "id": "8220DB000670",
        "name": "Mount Temple School, stop 670",
        "coords": {
            "lat": 53.3689561148113,
            "lon": -6.226029663892049
        }
    },
    {
        "id": "8220DB000671",
        "name": "Nazareth House, stop 671",
        "coords": {
            "lat": 53.370716841971294,
            "lon": -6.224153053155121
        }
    },
    {
        "id": "8220DB000672",
        "name": "Donnycarney Road, stop 672",
        "coords": {
            "lat": 53.37346635003139,
            "lon": -6.22107782075331
        }
    },
    {
        "id": "8220DB000675",
        "name": "Buckingham St Lower, stop 675",
        "coords": {
            "lat": 53.352858137718705,
            "lon": -6.248525759477019
        }
    },
    {
        "id": "8220DB000709",
        "name": "St Brigid's Church, stop 709",
        "coords": {
            "lat": 53.375038059853495,
            "lon": -6.19703913201497
        }
    },
    {
        "id": "8220DB000722",
        "name": "Raheny Station, stop 722",
        "coords": {
            "lat": 53.3811136996541,
            "lon": -6.17572202474458
        }
    },
    {
        "id": "8220DB000723",
        "name": "Raheny Road, stop 723",
        "coords": {
            "lat": 53.384151788006804,
            "lon": -6.17572742205121
        }
    },
    {
        "id": "8220DB000724",
        "name": "Grange Park Road, stop 724",
        "coords": {
            "lat": 53.386955462943405,
            "lon": -6.174510011408991
        }
    },
    {
        "id": "8220DB000725",
        "name": "Ardscoil La Salle, stop 725",
        "coords": {
            "lat": 53.3895723720669,
            "lon": -6.1704888112674805
        }
    },
    {
        "id": "8220DB000726",
        "name": "Grange Road, stop 726",
        "coords": {
            "lat": 53.39174835142529,
            "lon": -6.16761378066958
        }
    },
    {
        "id": "8220DB000727",
        "name": "Ardara Avenue, stop 727",
        "coords": {
            "lat": 53.393704851866595,
            "lon": -6.16683802482064
        }
    },
    {
        "id": "8220DB000728",
        "name": "Holy Trinity Church, stop 728",
        "coords": {
            "lat": 53.395316210686204,
            "lon": -6.163490594723691
        }
    },
    {
        "id": "8220DB000729",
        "name": "Holy Trinity NS, stop 729",
        "coords": {
            "lat": 53.3965584588012,
            "lon": -6.16244459517583
        }
    },
    {
        "id": "8220DB000730",
        "name": "Grangemore Road, stop 730",
        "coords": {
            "lat": 53.398166697731895,
            "lon": -6.16181886879412
        }
    },
    {
        "id": "8220DB000738",
        "name": "Grange Road, stop 738",
        "coords": {
            "lat": 53.3976003550339,
            "lon": -6.16181320548635
        }
    },
    {
        "id": "8220DB000739",
        "name": "Holy Trinity Church, stop 739",
        "coords": {
            "lat": 53.3951450858632,
            "lon": -6.16346788917255
        }
    },
    {
        "id": "8220DB000740",
        "name": "Ardara Avenue, stop 740",
        "coords": {
            "lat": 53.393141277624906,
            "lon": -6.16701261526435
        }
    },
    {
        "id": "8220DB000741",
        "name": "St Donagh's Road, stop 741",
        "coords": {
            "lat": 53.39190772522429,
            "lon": -6.16745657119044
        }
    },
    {
        "id": "8220DB000742",
        "name": "Raheny Road, stop 742",
        "coords": {
            "lat": 53.3898234138486,
            "lon": -6.16986158795105
        }
    },
    {
        "id": "8220DB000743",
        "name": "Woodbine Park, stop 743",
        "coords": {
            "lat": 53.388024863805796,
            "lon": -6.17273523820554
        }
    },
    {
        "id": "8220DB000744",
        "name": "Belmont Park, stop 744",
        "coords": {
            "lat": 53.385092198803996,
            "lon": -6.1749204843706
        }
    },
    {
        "id": "8220DB000745",
        "name": "Raheny Station, stop 745",
        "coords": {
            "lat": 53.3813435656084,
            "lon": -6.17547167673021
        }
    },
    {
        "id": "8220DB000746",
        "name": "Kildare Street, stop 746",
        "coords": {
            "lat": 53.3401536166397,
            "lon": -6.255594281533459
        }
    },
    {
        "id": "8220DB000747",
        "name": "Kildare Street, stop 747",
        "coords": {
            "lat": 53.339930803028004,
            "lon": -6.255723518735921
        }
    },
    {
        "id": "8220DB000748",
        "name": "Huguenot Cemetery, stop 748",
        "coords": {
            "lat": 53.338509534397105,
            "lon": -6.25503066600713
        }
    },
    {
        "id": "8220DB000749",
        "name": "Baggot St Lower, stop 749",
        "coords": {
            "lat": 53.33762070095321,
            "lon": -6.25080214718473
        }
    },
    {
        "id": "8220DB000750",
        "name": "Fitzwilliam Street, stop 750",
        "coords": {
            "lat": 53.3365710800776,
            "lon": -6.24848750327109
        }
    },
    {
        "id": "8220DB000751",
        "name": "Herbert Street, stop 751",
        "coords": {
            "lat": 53.335320547927296,
            "lon": -6.246571635527509
        }
    },
    {
        "id": "8220DB000752",
        "name": "Baggot St Upper, stop 752",
        "coords": {
            "lat": 53.333671654235296,
            "lon": -6.24446202003109
        }
    },
    {
        "id": "8220DB000753",
        "name": "Waterloo Road, stop 753",
        "coords": {
            "lat": 53.332453390271795,
            "lon": -6.24352105457139
        }
    },
    {
        "id": "8220DB000754",
        "name": "Burlington Road, stop 754",
        "coords": {
            "lat": 53.330783782374,
            "lon": -6.24428032727376
        }
    },
    {
        "id": "8220DB000755",
        "name": "Wellington Lane, stop 755",
        "coords": {
            "lat": 53.328828045698096,
            "lon": -6.24514136798765
        }
    },
    {
        "id": "8220DB000756",
        "name": "Royal Hospital, stop 756",
        "coords": {
            "lat": 53.3263997617809,
            "lon": -6.24259874670305
        }
    },
    {
        "id": "8220DB000757",
        "name": "Donnybrook Village, stop 757",
        "coords": {
            "lat": 53.324081337159,
            "lon": -6.239586509859331
        }
    },
    {
        "id": "8220DB000758",
        "name": "Victoria Avenue, stop 758",
        "coords": {
            "lat": 53.32268694295529,
            "lon": -6.237677380431499
        }
    },
    {
        "id": "8220DB000759",
        "name": "Donnybrook Stadium, stop 759",
        "coords": {
            "lat": 53.320348850844795,
            "lon": -6.2333455168372796
        }
    },
    {
        "id": "8220DB000760",
        "name": "Donnybrook Church, stop 760",
        "coords": {
            "lat": 53.318330187289,
            "lon": -6.23056195593035
        }
    },
    {
        "id": "8220DB000761",
        "name": "Teresian School, stop 761",
        "coords": {
            "lat": 53.3161004007996,
            "lon": -6.22748721370695
        }
    },
    {
        "id": "8220DB000762",
        "name": "RTE, stop 762",
        "coords": {
            "lat": 53.3145170648506,
            "lon": -6.224370944064879
        }
    },
    {
        "id": "8220DB000763",
        "name": "Belfield Court, stop 763",
        "coords": {
            "lat": 53.3123201447844,
            "lon": -6.2211003190802
        }
    },
    {
        "id": "8220DB000769",
        "name": "Belfield Court, stop 769",
        "coords": {
            "lat": 53.311901092317804,
            "lon": -6.22132785711797
        }
    },
    {
        "id": "8220DB000770",
        "name": "RTE, stop 770",
        "coords": {
            "lat": 53.314636187562506,
            "lon": -6.22573181130967
        }
    },
    {
        "id": "8220DB000771",
        "name": "Teresian School, stop 771",
        "coords": {
            "lat": 53.315880069244,
            "lon": -6.227781522427981
        }
    },
    {
        "id": "8220DB000772",
        "name": "Donnybrook Garage, stop 772",
        "coords": {
            "lat": 53.318485257456395,
            "lon": -6.23132106360088
        }
    },
    {
        "id": "8220DB000773",
        "name": "Donnybrook Road, stop 773",
        "coords": {
            "lat": 53.3199163484799,
            "lon": -6.23327331931076
        }
    },
    {
        "id": "8220DB000774",
        "name": "Donnybrook Garda Stn, stop 774",
        "coords": {
            "lat": 53.3216121235643,
            "lon": -6.235499996419691
        }
    },
    {
        "id": "8220DB000775",
        "name": "Donnybrook Village, stop 775",
        "coords": {
            "lat": 53.3234897098062,
            "lon": -6.23908544721608
        }
    },
    {
        "id": "8220DB000776",
        "name": "Morehampton Terrace, stop 776",
        "coords": {
            "lat": 53.3254792402838,
            "lon": -6.241735821060701
        }
    },
    {
        "id": "8220DB000777",
        "name": "Royal Hospital, stop 777",
        "coords": {
            "lat": 53.3269721601116,
            "lon": -6.24362614364866
        }
    },
    {
        "id": "8220DB000779",
        "name": "Waterloo Road, stop 779",
        "coords": {
            "lat": 53.3286887363318,
            "lon": -6.24544736264849
        }
    },
    {
        "id": "8220DB000780",
        "name": "Burlington Road, stop 780",
        "coords": {
            "lat": 53.3310633511706,
            "lon": -6.244343918212019
        }
    },
    {
        "id": "8220DB000781",
        "name": "Baggot Street, stop 781",
        "coords": {
            "lat": 53.3326262714266,
            "lon": -6.24366410261758
        }
    },
    {
        "id": "8220DB000782",
        "name": "Baggot St Upper, stop 782",
        "coords": {
            "lat": 53.3335838144594,
            "lon": -6.24460076754328
        }
    },
    {
        "id": "8220DB000783",
        "name": "Baggot St Lower, stop 783",
        "coords": {
            "lat": 53.3353085373768,
            "lon": -6.246977563969799
        }
    },
    {
        "id": "8220DB000784",
        "name": "Fitzwilliam Street, stop 784",
        "coords": {
            "lat": 53.3364567280923,
            "lon": -6.2486573714650895
        }
    },
    {
        "id": "8220DB000785",
        "name": "Pembroke St Lower, stop 785",
        "coords": {
            "lat": 53.3371058976042,
            "lon": -6.25185937348658
        }
    },
    {
        "id": "8220DB000786",
        "name": "Embassy of Malta, stop 786",
        "coords": {
            "lat": 53.3351467148295,
            "lon": -6.2561740357725295
        }
    },
    {
        "id": "8220DB000790",
        "name": "Stephen's Green Nth, stop 790",
        "coords": {
            "lat": 53.3392943719705,
            "lon": -6.2583024730144
        }
    },
    {
        "id": "8220DB000791",
        "name": "Stephen's Green Nth, stop 791",
        "coords": {
            "lat": 53.3388796212347,
            "lon": -6.2569828304902195
        }
    },
    {
        "id": "8220DB000792",
        "name": "Dawson Street, stop 792",
        "coords": {
            "lat": 53.34044898815289,
            "lon": -6.2585858084511505
        }
    },
    {
        "id": "8220DB000793",
        "name": "Dawson Street, stop 793",
        "coords": {
            "lat": 53.340859786031196,
            "lon": -6.25840386924726
        }
    },
    {
        "id": "8220DB000795",
        "name": "Berkeley Road, stop 795",
        "coords": {
            "lat": 53.3587400433,
            "lon": -6.26972427815321
        }
    },
    {
        "id": "8220DB000796",
        "name": "Berkeley Road, stop 796",
        "coords": {
            "lat": 53.3600182144458,
            "lon": -6.26985278581187
        }
    },
    {
        "id": "8220DB000797",
        "name": "Phibsborough PO, stop 797",
        "coords": {
            "lat": 53.3607260028228,
            "lon": -6.2746621647210095
        }
    },
    {
        "id": "8220DB000798",
        "name": "Rathdown Road, stop 798",
        "coords": {
            "lat": 53.35947663614451,
            "lon": -6.27964070094012
        }
    },
    {
        "id": "8220DB000799",
        "name": "Charleville Road, stop 799",
        "coords": {
            "lat": 53.358868710012295,
            "lon": -6.28173855104542
        }
    },
    {
        "id": "8220DB000800",
        "name": "Annamore Parade, stop 800",
        "coords": {
            "lat": 53.358065151525295,
            "lon": -6.284610428948059
        }
    },
    {
        "id": "8220DB000801",
        "name": "Annamore Road, stop 801",
        "coords": {
            "lat": 53.3574704998135,
            "lon": -6.28763908243526
        }
    },
    {
        "id": "8220DB000802",
        "name": "Drumalee, stop 802",
        "coords": {
            "lat": 53.356498322495,
            "lon": -6.29129872279029
        }
    },
    {
        "id": "8220DB000803",
        "name": "Oxmantown Road, stop 803",
        "coords": {
            "lat": 53.3547130307126,
            "lon": -6.2940442138599595
        }
    },
    {
        "id": "8220DB000804",
        "name": "O'Devaney Gardens, stop 804",
        "coords": {
            "lat": 53.3536849851876,
            "lon": -6.295692680533481
        }
    },
    {
        "id": "8220DB000807",
        "name": "Phoenix Park, stop 807",
        "coords": {
            "lat": 53.3515565121175,
            "lon": -6.297700386084469
        }
    },
    {
        "id": "8220DB000808",
        "name": "North Circular Road, stop 808",
        "coords": {
            "lat": 53.353994669521704,
            "lon": -6.29534982649483
        }
    },
    {
        "id": "8220DB000809",
        "name": "Marlborough Road, stop 809",
        "coords": {
            "lat": 53.35526073980721,
            "lon": -6.293376346249469
        }
    },
    {
        "id": "8220DB000810",
        "name": "Ellesmere Avenue, stop 810",
        "coords": {
            "lat": 53.357099860159295,
            "lon": -6.28999764127668
        }
    },
    {
        "id": "8220DB000811",
        "name": "Annamore Road, stop 811",
        "coords": {
            "lat": 53.3575671567889,
            "lon": -6.2874849681966305
        }
    },
    {
        "id": "8220DB000812",
        "name": "Annamore Parade, stop 812",
        "coords": {
            "lat": 53.3582663606545,
            "lon": -6.2842267437379595
        }
    },
    {
        "id": "8220DB000813",
        "name": "Charleville Road, stop 813",
        "coords": {
            "lat": 53.35919004609939,
            "lon": -6.28095937438318
        }
    },
    {
        "id": "8220DB000814",
        "name": "St Peter's Church, stop 814",
        "coords": {
            "lat": 53.36054001513929,
            "lon": -6.2760970492999
        }
    },
    {
        "id": "8220DB000817",
        "name": "Mater Hospital, stop 817",
        "coords": {
            "lat": 53.3596462179702,
            "lon": -6.269612438447651
        }
    },
    {
        "id": "8220DB000818",
        "name": "O'Connell Avenue, stop 818",
        "coords": {
            "lat": 53.3584811208105,
            "lon": -6.26922394483129
        }
    },
    {
        "id": "8220DB000819",
        "name": "Blessington Street, stop 819",
        "coords": {
            "lat": 53.3563040208513,
            "lon": -6.26599198569768
        }
    },
    {
        "id": "8220DB000820",
        "name": "Carnlough Road, stop 820",
        "coords": {
            "lat": 53.36196779514621,
            "lon": -6.2935139795842305
        }
    },
    {
        "id": "8220DB000821",
        "name": "Drumcliffe Road, stop 821",
        "coords": {
            "lat": 53.364551903506495,
            "lon": -6.293831436354379
        }
    },
    {
        "id": "8220DB000822",
        "name": "Mulroy Road, stop 822",
        "coords": {
            "lat": 53.3671206776284,
            "lon": -6.291820321104269
        }
    },
    {
        "id": "8220DB000823",
        "name": "Kilkieran Road, stop 823",
        "coords": {
            "lat": 53.3682351539515,
            "lon": -6.29118965054409
        }
    },
    {
        "id": "8220DB000824",
        "name": "Bannow Road, stop 824",
        "coords": {
            "lat": 53.369747851895596,
            "lon": -6.2932630949611505
        }
    },
    {
        "id": "8220DB000825",
        "name": "St Finbar's Road, stop 825",
        "coords": {
            "lat": 53.370429439934505,
            "lon": -6.29693282591368
        }
    },
    {
        "id": "8220DB000826",
        "name": "Carnlough Road, stop 826",
        "coords": {
            "lat": 53.3712178543801,
            "lon": -6.301169507559139
        }
    },
    {
        "id": "8220DB000827",
        "name": "Ventry Park, stop 827",
        "coords": {
            "lat": 53.3712939490676,
            "lon": -6.30399186938362
        }
    },
    {
        "id": "8220DB000828",
        "name": "Broombridge Station, stop 828",
        "coords": {
            "lat": 53.3710448241129,
            "lon": -6.29974867792338
        }
    },
    {
        "id": "8220DB000829",
        "name": "St Finbar's Road, stop 829",
        "coords": {
            "lat": 53.3703968945613,
            "lon": -6.29591219523139
        }
    },
    {
        "id": "8220DB000830",
        "name": "Bannow Road, stop 830",
        "coords": {
            "lat": 53.3696243716589,
            "lon": -6.2921709801525
        }
    },
    {
        "id": "8220DB000831",
        "name": "Mulroy Road, stop 831",
        "coords": {
            "lat": 53.3676619691102,
            "lon": -6.291332812909009
        }
    },
    {
        "id": "8220DB000832",
        "name": "Drumcliffe Road, stop 832",
        "coords": {
            "lat": 53.363629454606105,
            "lon": -6.2940636348917005
        }
    },
    {
        "id": "8220DB000833",
        "name": "Swilly Road, stop 833",
        "coords": {
            "lat": 53.3617761473218,
            "lon": -6.293311283839639
        }
    },
    {
        "id": "8220DB000834",
        "name": "Binns Bridge, stop 834",
        "coords": {
            "lat": 53.3619754108391,
            "lon": -6.26042763798583
        }
    },
    {
        "id": "8220DB000835",
        "name": "St Brigid's Rd Lower, stop 835",
        "coords": {
            "lat": 53.362628016637295,
            "lon": -6.26327096161364
        }
    },
    {
        "id": "8220DB000836",
        "name": "Claude Road, stop 836",
        "coords": {
            "lat": 53.3632915018077,
            "lon": -6.26624916236241
        }
    },
    {
        "id": "8220DB000837",
        "name": "David Road, stop 837",
        "coords": {
            "lat": 53.3637784077139,
            "lon": -6.26821283704861
        }
    },
    {
        "id": "8220DB000838",
        "name": "Whitworth Road, stop 838",
        "coords": {
            "lat": 53.36431939611871,
            "lon": -6.27018939098137
        }
    },
    {
        "id": "8220DB000839",
        "name": "David Road, stop 839",
        "coords": {
            "lat": 53.363744920420295,
            "lon": -6.26776341253996
        }
    },
    {
        "id": "8220DB000840",
        "name": "Claude Road, stop 840",
        "coords": {
            "lat": 53.3632433495651,
            "lon": -6.26540966607283
        }
    },