{
    "stops": [
        {
            "id": "1647",
            "name": "Blackhall Place",
            "coords": {
                "lat": 53.34835106357021,
                "lon": -6.282251726202659
            }
        },
        {
            "id": "1714",
            "name": "Stoneybatter",
            "coords": {
                "lat": 53.3506378069393,
                "lon": -6.28188938800197
            }
        },
        {
            "id": "1715",
            "name": "Blackhall Place",
            "coords": {
                "lat": 53.347711982180606,
                "lon": -6.28218729951852
            }
        },
        {
            "id": "1648",
            "name": "Stoneybatter",
            "coords": {
                "lat": 53.351091367532504,
                "lon": -6.28280248510498
            }
        },
        {
            "id": "1713",
            "name": "Manor Street",
            "coords": {
                "lat": 53.35190782001921,
                "lon": -6.28332547345319
            }
        },
        {
            "id": "1476",
            "name": "Sarsfield Quay",
            "coords": {
                "lat": 53.3470736855785,
                "lon": -6.28467627539544
            }
        },
        {
            "id": "1649",
            "name": "Manor Street",
            "coords": {
                "lat": 53.3525701350153,
                "lon": -6.284380448478991
            }
        },
        {
            "id": "7453",
            "name": "Arran Quay",
            "coords": {
                "lat": 53.3463358924194,
                "lon": -6.27838250402172
            }
        },
        {
            "id": "1445",
            "name": "Usher's Quay",
            "coords": {
                "lat": 53.345678410254706,
                "lon": -6.27828883961715
            }
        },
        {
            "id": "4407",
            "name": "Victoria Quay",
            "coords": {
                "lat": 53.3465291195087,
                "lon": -6.2861851185728
            }
        }
    ],
    "status": "OK"
}