stop_id,stop_name,stop_lat,stop_lon
2,Parnell Square West,53.3522443611407,-6.263723218918821
3,Parnell Square West,53.352308551434895,-6.26381074216821
4,Parnell Square West,53.3525745131874,-6.264175486037931
6,Parnell Square West,53.352749335706996,-6.26445380396429
7,Parnell Square West,53.352840910580795,-6.2645702612174405
8,Parnell Square West,53.353272271484606,-6.26518367657395
10,Parnell Square West,53.3533921036497,-6.26538912389949
11,St Joseph's Parade,53.3568152335319,-6.26467919507521
12,Upper Dorset Street,53.35710751620461,-6.26438186733525
14,Dorset Street Lower,53.358531237878196,-6.2627765057086595
15,Innisfallen Parade,53.360266707598896,-6.26097804267247
16,Nephin Road Park,53.3663915571432,-6.3056141835273305
17,Drumcondra Rail Stn,53.363078324380396,-6.25839928847829
18,Dargle Road,53.36585592591911,-6.2559568206783
19,Botanic Avenue,53.3672348759349,-6.25559994097697
21,DCU St Patrick's,53.3701011992972,-6.254310599044371
22,Home Farm Road,53.373503609743096,-6.25280375269001
23,Ferguson Road,53.3742282800816,-6.25626100416695
24,Walsh Road,53.3751331588865,-6.2603723481231395
25,Rathlin Road,53.3758994661498,-6.26361773641705
27,Ballymun Road,53.379438960013104,-6.26658526125999
28,Hampstead Avenue,53.381578637630504,-6.2660022707773395
29,Albert College Park,53.383488252948204,-6.26566910125412
30,Ventry Park,53.370331900195104,-6.30460116922909
31,St Pappin's Road,53.3860332259168,-6.2688580772749605
32,Stormanstown Road,53.386195568076104,-6.27137720104136
33,Glasnevin Drive,53.3887179243081,-6.271771141224459
35,Dean Swift Road,53.3862067871037,-6.270910692540951
36,Maolbuille Road,53.3861268504134,-6.2678770697833395
37,DCU Ballymun Road,53.385346401196394,-6.2648869813179004
38,Hampstead Avenue,53.382236594166095,-6.26550952120501
39,The Rise,53.3804141869347,-6.265658759065841
40,Stella Avenue,53.3766607654531,-6.2646689685279
41,Home Farm Road,53.375559268328296,-6.2618580062466505
42,Corpus Christi NS,53.37465027346,-6.2574611897212895
43,Achill Road,53.3738612202293,-6.2539013104338705
44,Skylon Hotel,53.373017409122895,-6.2521323032429095
45,DCU St Patrick's,53.36993643440311,-6.254106940849611
46,Botanic Avenue,53.367131016217606,-6.255258556550079
47,Drumcondra Rail Stn,53.3639161189952,-6.25729825652797
48,Fitzroy Avenue,53.36225739012529,-6.25880841233312
49,Dorset Street Lower,53.3600042378903,-6.26085350834049
51,Temple Street,53.3578104088118,-6.26327157246547
52,Dorset Street Upper,53.3566607792373,-6.26456528204094
53,North Circular Road,53.3600144884247,-6.26279128910748
54,Mater Hospital,53.3602216080572,-6.26590803396304
55,Mountjoy,53.3604116029257,-6.26846957982232
56,Dalymount,53.360759724606396,-6.2763736549140505
57,Dalymount,53.360816224294204,-6.27655167484326
58,Churchview Home,53.3609462458936,-6.28120420246718
59,Annamoe Terrace,53.361018010198606,-6.28494256312823
60,Quarry Road,53.3612792196503,-6.28936450005441
63,Faussaugh Avenue,53.366792437295196,-6.292750108058491
64,Faussaugh Ave Church,53.367088582068796,-6.29523278220332
65,Dingle Road,53.3672546442408,-6.29805127641295
66,Broombridge Road,53.3672749883724,-6.3007403455498805
68,Ventry Drive,53.36907750804811,-6.30424523466637
69,Carnlough Road,53.3713925640956,-6.3033417168952095
71,Ventry Park,53.370257689331,-6.304438805303481
72,Ventry Drive,53.3689699260271,-6.30426453600159
73,Faussagh Avenue,53.3673915527279,-6.30072067865566
74,Faussaugh Ave Church,53.367200238565594,-6.29549881400774
75,Fionnbarra GAA,53.366547229896796,-6.2913173193678995
77,Quarry Road,53.36130918190471,-6.2895736523468395
78,Annamoe Terrace,53.361149215192796,-6.2840658352747
79,Churchview Home,53.3610212509784,-6.280795505621481
80,Phibsborough PO,53.3608629632753,-6.2760539615295805
81,Phibsborough,53.3608757479082,-6.271966626916031
82,Phibsborough,53.360797795917904,-6.27154908016377
83,Mater Hospital,53.36027924982471,-6.26554509616271
84,Leo Street,53.3601625615987,-6.263701780590969
85,Wellpark Avenue,53.3739579526161,-6.25191342966416
86,Home Farm FC,53.3760502204615,-6.25116639066164
87,Clare Road,53.3767517255744,-6.25488028992455
88,Walnut Rise,53.3772872553016,-6.25769922864556
90,Albert College Court,53.386385531676204,-6.26526567275517
91,Ballymun Road NS,53.38842788965079,-6.26540814207678
92,Ballymun Library,53.3898373340536,-6.264674240361001
93,Gateway Avenue,53.3923014677522,-6.264152975610089
94,Civic Centre,53.396034762414,-6.26437695995443
102,Balbutcher Lane,53.397773070168505,-6.26771985697008
104,Poppintree Parade,53.3997562075198,-6.276812945025231
105,Belclare Park,53.402936396684105,-6.281692696469441
107,Crannogue Road,53.4020356254354,-6.27968361815457
110,Árd Na Meala,53.397938640963794,-6.26860038147326
112,Civic Centre,53.3961544015487,-6.26395104030175
113,Trinity Comp School,53.392267962928706,-6.26370325464242
114,Ballymun Road,53.391333322056894,-6.263711229252321
115,Ballymun Road Church,53.387964091989495,-6.265036100481441
116,Griffith Lawns,53.37769346064611,-6.25966673989331
117,Walnut Rise,53.3773659067276,-6.2575457084552095
118,Clare Road,53.376643001693296,-6.25359209857676
119,The Village,53.3751904807261,-6.25076574528229
126,Nursing Home,53.3990954666878,-6.264086960560401
127,Nursing Home,53.3991075304829,-6.263680428239669
129,Glasnevin Drive,53.3898903154498,-6.27142293606873
130,Glasnevin Park,53.390092012762004,-6.27418126942501
131,Willow Park Road,53.390385890264795,-6.27834923697204
133,Grove Park Road,53.390796927590294,-6.286301509472881
134,Sycamore Road,53.3930945913226,-6.28607386543557
136,McKee Road,53.394380201391705,-6.28985659650005
137,Clancy Avenue,53.392316719632596,-6.29263079481428
138,St Canice's BNS,53.3899950092694,-6.29180657264737
141,Willow Park Road,53.390445085094,-6.2780912446871
142,Glasnevin Park,53.3901982852644,-6.2740717219552895
143,Willow Park Avenue,53.3898767084074,-6.269243369980151
146,Na Fianna GAA Club,53.3750401276344,-6.26509558567463
147,Tolka Bridge,53.372480226240995,-6.265830862123599
148,Mobhi Road,53.3706701663492,-6.268068507058199
149,Tolka Bridge,53.3731385872581,-6.26598446613774
150,Na Fianna GAA Club,53.375658846188706,-6.264995283028179
151,Botanic Gardens,53.3719552600216,-6.2692938277115
153,Met Eireann,53.375688505625895,-6.270134439462909
154,St Brigid's School,53.3772589962536,-6.27555703718647
155,Old Finglas Road,53.377874249289206,-6.2795755271756795
156,Tolka Estate,53.3786233900883,-6.28166473909488
157,Glasilawn Road,53.3804116224189,-6.28163782517761
158,Griffith Road,53.3814819498312,-6.283563954050339
159,Griffith Parade,53.382783719159605,-6.28283511246103
164,Beneavin Road,53.3884303639479,-6.28048792293041
165,Beneavin Park,53.3890348746741,-6.28377124881093
166,Beneavin School,53.3895835973705,-6.2863051485736
167,Beneavin Road,53.390186602137796,-6.28698758531702
168,Beneavin Park,53.3892599668895,-6.284423734694379
169,Beneavin Court,53.38843393467171,-6.280111909958491
173,Glasnamana Place,53.3821216123005,-6.28054674839464
174,Tolka Estate,53.3806803549497,-6.28095056210767
175,Northland Grove,53.37842425373321,-6.2815675389551
176,Old Finglas Road,53.37803204197579,-6.279298606078041
177,Ballygall Rd East,53.3804683765696,-6.276224035153789
178,Fitzmaurice Road,53.381890263171606,-6.27634698261821
179,Ballygall Rd East,53.3803034312785,-6.27600521980129
181,Cremore Avenue,53.3771498433788,-6.2742237068618705
182,Met Eireann,53.375656766824505,-6.2698050597086
183,Botanic Gardens,53.3723159291239,-6.268753184860341
184,Botanic Road,53.369703681984994,-6.268979354499249
185,St Teresa's Place,53.3681009359885,-6.27002113927779
186,Lindsay Grove,53.3653553426373,-6.27158997755113
187,Phibsborough Road,53.3627342523627,-6.2724473653382695
188,North Circular Road,53.3601206877577,-6.272583149150059
189,Fire Station,53.3571674394906,-6.27346881555335
190,Broadstone,53.355125730416795,-6.2733710740057
191,Western Way,53.355017948577796,-6.26903378050287
192,Mountjoy Street,53.3563972112382,-6.2680764696391
193,Finglas Park,53.391196305981,-6.2941040348739
194,Western Way,53.355040649554205,-6.2699793110377
195,Broadstone,53.355011777879,-6.27357097973092
196,Fire Station,53.356883899293,-6.27375070406949
197,Monck Place,53.358952631614294,-6.273231373511679
198,Phibsborough SC,53.361625382881,-6.272837810416559
199,Munster Street,53.3636218115005,-6.2722912462251506
200,Prospect Way,53.3674226926335,-6.271596443937969
201,Botanic Road,53.3682910986623,-6.270118626910759
202,Fairfield Road,53.3700800875522,-6.26890397753371
203,Whitehall College,53.3763927937161,-6.25001002810668
204,Highfield Hospital,53.3795883575696,-6.246662192737559
205,Iveragh Road,53.38137532693979,-6.2453260469946805
206,Collins Avenue West,53.3835460890355,-6.24747670792423
207,Larkhill Road,53.38482163073879,-6.24987478276797
208,Glendun Road,53.386653930318396,-6.24795040815751
209,Larkhill Road,53.3872711105316,-6.24591044728037
210,Crestfield Road,53.387594081275395,-6.24831772849051
211,Collins Avenue,53.3842808561657,-6.24916033059412
212,Whitehall,53.3831956351303,-6.24625839753317
213,Iveragh Road,53.381449544026005,-6.24487202356891
214,Highfield Hospital,53.3794084835756,-6.24665455182551
215,Collins Avenue,53.3818722870075,-6.242449429229441
216,Beaumont Road,53.3823308174863,-6.238191319693319
217,Grace Park Court,53.3843236218457,-6.23680112220441
218,Shantalla Road,53.3859238989727,-6.233788324110839
220,Swords Road,53.387940539658096,-6.24498084117378
233,Beaumont Road,53.3858213105816,-6.23353699415897
234,Beaumont Grove,53.3849504827269,-6.23482084271798
235,Collinswood,53.383296613184605,-6.237249456510531
236,Yellow Road,53.382024743098405,-6.2381588600378
237,Collins Avenue,53.3820319328845,-6.2435251997587
242,Coolgreena Road,53.385654898569896,-6.23201042764994
243,Lady of Mercy,53.385780060841704,-6.229539674546929
244,Skelly's Lane,53.3849982136881,-6.22349851566411
245,Whitethorn Crescent,53.3844722444229,-6.219566606046059
246,Artane Castle,53.3851504766498,-6.216230877169889
247,Ardlea Road,53.386976161061796,-6.21450075590271
248,Maryfield Drive,53.3855645601755,-6.21446963135779
249,Artane Castle,53.3849335491817,-6.216149744963889
250,Skelly's Lane,53.384419449981394,-6.220245316101299
251,Elmount Crescent,53.3848322787477,-6.223219786333059
252,Lady of Mercy,53.3855680158399,-6.22796991791535
253,Beaumont Hospital,53.389945950738706,-6.2243900468539906
254,Beaumont Hospital,53.3902652984461,-6.22410611366832
255,Coolgreena Road,53.3855938804217,-6.23153187241737
261,Parnell Square East,53.3540562845357,-6.262853361222219
262,Parnell Square East,53.35394696104179,-6.26275264892104
263,Parnell Square East,53.353745623497105,-6.26250545398005
264,Parnell Square East,53.3535353026736,-6.26225862681687
265,Parnell Square East,53.3533615685169,-6.262055380704559
270,O'Connell St Upper,53.350623391533205,-6.260424291634281
271,O'Connell St Lower,53.3485963625842,-6.25948541997207
272,O'Connell St Upper,53.3514644798942,-6.260780605732889
273,O'Connell Bridge,53.3472474159548,-6.25881940153953
274,O'Connell St Upper,53.350349083824604,-6.2607208686217
276,River Road,53.3774022009268,-6.33179658312853
277,O'Connell St Upper,53.3508223258205,-6.26050631978687
278,O'Connell St Upper,53.3515608719055,-6.261227335643119
279,O'Connell St Upper,53.350131746411705,-6.26060954701661
281,O'Connell St Upper,53.3513435349612,-6.26111600843156
284,Rathbourne Avenue,53.377282623932,-6.32838928381525
286,Cathal Brugha Street,53.352170843741,-6.25991061099432
288,Irish Life,53.349168812324,-6.25560170347432
289,Abbey St Lower,53.3490351823495,-6.256298123419381
291,Abbey St Lower,53.348950400305206,-6.25664706494075
292,Abbey St Lower,53.349199694764,-6.255254959387059
293,Abbey St Lower,53.3488581695556,-6.25710145511171
297,Eden Quay,53.3481432679383,-6.256770126017081
298,Eden Quay,53.3482006633767,-6.25639226781078
299,Eden Quay,53.34824184744821,-6.256135235663309
300,Liberty Hall,53.348299240860996,-6.255757375774619
301,Eden Quay,53.3479883676024,-6.25662624092321
302,Eden Quay,53.3480380961838,-6.25633882037526
303,Eden Quay,53.34805999809301,-6.25599245267002
307,O'Donovan Road,53.3345770894681,-6.28008746416517
308,Oscar Square,53.336771188956796,-6.2795336569240305
309,Ardee Street,53.3378498917986,-6.2789195881599005
312,Wellington Quay,53.3454764728287,-6.26620615548425
313,Bachelors Walk,53.3469069007469,-6.26197249771067
315,Bachelors Walk,53.3470973047636,-6.2614690836473
317,Westmoreland Street,53.346525944452104,-6.259269366244769
318,Westmoreland Street,53.346417713119294,-6.25924373595412
319,Westmoreland Street,53.3462744267355,-6.25927961394872
320,Westmoreland Street,53.3456456323913,-6.25930523253443
322,Gulliver's Retail Pk,53.404254992466896,-6.265350845321809
325,Aston Quay,53.3466970502557,-6.25990825953705
326,Aston Quay,53.3465535364808,-6.260544947224551
328,Aston Quay,53.34634998364321,-6.2613793338963095
329,Aston Quay,53.346318864463704,-6.2617110397058
333,D'Olier Street,53.34669223659329,-6.25834636399192
334,D'Olier Street,53.346581156207506,-6.25812559112211
335,D'Olier Street,53.3463614054442,-6.25784917048533
336,D'Olier Street,53.3462516394318,-6.25771846673942
340,Townsend Street,53.3460128066393,-6.25613609916839
342,College Street,53.3455641183199,-6.256800260758129
345,Pearse St Garda Stn,53.3454758154714,-6.25629319407125
346,Pearse St Garda Stn,53.3455443981674,-6.2566809076364995
350,Prince's St South,53.34563194158421,-6.24976824959419
351,Erne Street,53.3434182647933,-6.24530817378356
352,Pearse Square,53.342989145805596,-6.242412139989849
353,Grand Canal Quay,53.3426158463834,-6.23964903171018
354,Ringsend Road,53.34223582802,-6.23643568982665
355,Ringsend Garage,53.341817347783795,-6.233058790692941
356,Ringsend,53.3419030234443,-6.22671744313459
357,Irishtown Road,53.3391710439696,-6.2231214748985195
371,Irishtown Road,53.338612780739496,-6.223054582534161
372,Star of the Sea,53.335488146952706,-6.219655671448951
373,Farney Park,53.3342753312741,-6.217889272596481
374,Sandymount,53.3332284399034,-6.216401342119171
375,Dromard Terrace,53.3340611346546,-6.21438451306244
376,Lea Road,53.3307125262278,-6.20925426461614
377,Gilford Road,53.328728929233506,-6.2088418953406705
378,Sandymount Tower,53.3256502919051,-6.2073344720141606
380,St John's Road,53.3247260855166,-6.20923477230433
381,St John's Church,53.3243237661094,-6.21237419337661
382,St John's Road,53.3250628541644,-6.20771940485297
383,Gilford Road,53.3286049757757,-6.20896719963214
384,Lea Road,53.331633952394895,-6.2101616048599
385,Newgrove Avenue,53.33235102312079,-6.211227687939969
387,Sandymount,53.332499510202105,-6.21574105767743
388,Farney Park,53.3345088619679,-6.218480172552071
389,Star of the Sea,53.335290081799,-6.21963388936857
390,Tritonville Road,53.337629913787296,-6.2222394793376505
391,Bath Street,53.340063855474995,-6.2239253518331905
392,Ringsend,53.341733631169205,-6.22741532105916
393,Tritonville Road,53.33690388771971,-6.222374796852571
395,Ringsend Road,53.341940053567804,-6.2352764544162795
396,Grand Canal Quay,53.3424615903765,-6.239550255947879
397,Pearse Square,53.342785555443,-6.242015007307559
398,Erne Street,53.343294935038394,-6.24547844686784
399,Pearse Station,53.34386682210871,-6.248308601432201
400,Shaw Street,53.344846483913,-6.25320984701663
404,Nassau Street,53.34266333251289,-6.256347892394249
405,Nassau Street,53.342481689184,-6.2556043726642505
406,Nassau Street,53.3426061451661,-6.2561249457825605
407,Custom House,53.3483795866704,-6.253876505995059
408,Merrion Sq North,53.34097078262629,-6.250019239576369
409,Holles Street,53.3401367313194,-6.247695595569709
410,Mount Street Lower,53.338813450866006,-6.24389039032323
411,Mount Street Bridge,53.338117119223696,-6.24177155350135
412,Haddington Road,53.3352555102392,-6.237279319056151
413,Lansdowne Park,53.3340941933076,-6.236546394051469
414,Lansdowne Road,53.3315738058974,-6.23447321695269
415,American Embassy,53.3303378154095,-6.23294774966432
416,RDS Ballsbridge,53.328639920120104,-6.22936956914697
417,Merrion Road,53.32769958565329,-6.22597042048849
418,British Embassy,53.325719810514094,-6.223395297526129
419,Shrewsbury Park,53.323995105844496,-6.22044950312346
420,Merlyn Road,53.321910801291295,-6.217503921727429
421,Merrion View Avenue,53.32000517942429,-6.214491120422361
422,St Vincent's Hosp,53.318064191865794,-6.21032428070776
423,Herbert Avenue,53.317148504137,-6.20740565828112
424,Merrion Gates,53.3153943802017,-6.20372686621338
476,Merrion Gates,53.315751526373504,-6.2047625227325796
477,Herbert Avenue,53.31686305468511,-6.2069523200932695
478,St Vincent's Hosp,53.318114298918296,-6.21126782530883
479,Merrion Centre,53.319143967623795,-6.21340128669965
480,Netherlands Embassy,53.32084997999001,-6.216287205367651
481,Wanderers FC,53.3223446397574,-6.21826644297952
482,Shrewsbury Road,53.3247277780876,-6.22196529496766
483,British Embassy,53.3259441074967,-6.223971480523231
485,RDS Ballsbridge,53.3282515101299,-6.22863497077614
487,American Embassy,53.3308552893834,-6.2339023083720395
488,Lansdowne Park,53.333098554631995,-6.236076947011019
489,St Mary's Rd South,53.334942003147795,-6.237352312656149
490,Haddington Road,53.336573841915396,-6.23890680600162
491,Mount Street Bridge,53.33781405351171,-6.24133351088669
492,Mount Street Lower,53.3385846851446,-6.24361446215904
493,Holles Street,53.3398534163799,-6.24737682273893
494,Clare Street,53.341435583359,-6.25168225233912
495,Pearse Station,53.3435913198155,-6.24974670516899
496,Busáras,53.3494968761366,-6.2522235786816
497,Connolly,53.3505260754016,-6.25069434322377
499,Summerhill Parade,53.357450338618605,-6.249088626862191
500,Ballybough Road,53.359036076320294,-6.246289155281779
501,Clonliffe Avenue,53.3607056846908,-6.24369637425139
509,Ballybough Road,53.360601349361495,-6.24332503950189
510,Charleville Avenue,53.3591893775426,-6.245711927237361
511,Summerhill Parade,53.3575155897157,-6.248635233370191
513,Rutland Street,53.35521196298411,-6.25397276810393
515,Portland Row,53.3535348728268,-6.24809240079494
516,North Strand Road,53.3556839194156,-6.24570568436261
518,Waterloo Avenue,53.358904162431,-6.24099094394505
519,North Strand Road,53.3603387601192,-6.239534528658919
521,Annesley Bridge Road,53.3616370470509,-6.237978460685481
522,Fairview,53.3632889490314,-6.23541597469792
523,Marino College,53.36428545371471,-6.23169333166141
525,Howth Road,53.364960873513695,-6.226330911163111
526,Copeland Grove,53.366869572150705,-6.22111227858026
527,St Lawrence Road,53.3680198762304,-6.21267888054439
528,Castle Grove,53.3692640807,-6.20993674463172
529,Collins Avenue,53.3705774149481,-6.20761234516723
530,Killester,53.3712245323475,-6.20402332968275
531,The Demesne,53.3732509125134,-6.20130788472607
532,The Meadows,53.375802080406196,-6.19347468575645
533,Ennafort Park,53.3775832778058,-6.18705613952435
534,Cill Eanna,53.3787502415627,-6.1816402899894
535,Raheny,53.3802570730373,-6.177306957113661
536,Raheny Library,53.380423756711,-6.17351172677598
537,Avondale Park,53.3799012003082,-6.168152634977179
538,Maywood,53.3801380645897,-6.164264183188469
539,Foxfield,53.380673661813,-6.159355641537499
540,Blackbanks Coast,53.3813362763715,-6.15511794353322
541,James Larkin Road,53.381872707753296,-6.152028068446571
542,Blackbanks,53.3836619200484,-6.1462679499289905
591,Kilbarrack Road,53.3841675899819,-6.1446824866416
592,James Larkin Road,53.3827330098133,-6.14838287246937
593,Blackbanks,53.3818486949724,-6.151638257164099
594,Howth Road,53.38116336556029,-6.155561362132549
595,Foxfield,53.3805999504448,-6.15923856299824
596,The Old Shieling,53.38025284332729,-6.16179397207683
597,Maywood,53.379898135843604,-6.165612355367269
598,Avondale Park,53.379846629562905,-6.1692823774202505
599,Raheny Library,53.380300318921,-6.17308107835297
600,Raheny,53.3802479252415,-6.1761198105253206
601,Cill Eanna,53.3792234833207,-6.17966599663786
602,Wade's Avenue,53.3781425247933,-6.1830490710098305
603,Ennafort Park,53.3773821590119,-6.18742542966489
604,Ennafort Road,53.3763546440125,-6.190790859734401
605,The Meadows,53.3756666621091,-6.193435326606389
606,St Bridgets Church,53.3747089784039,-6.19786466034232
607,The Demense,53.3725157799941,-6.2020302137195005
608,Killester,53.371078384466294,-6.204465314765559
609,Castle Grove,53.3698375440806,-6.2086202564896205
610,Ashbrook,53.3683623013095,-6.211537455274321
611,Hollybrook Park,53.3667546791219,-6.2188329221112895
612,Copeland Avenue,53.3657562265207,-6.22420912998324
613,Marino Crescent Park,53.364617470991895,-6.226810998384559
614,Fairview,53.3636380024156,-6.23349323029591
615,Annesley Bridge,53.3619064164568,-6.23735129893029
616,Nth Strand Fire Stn,53.35984471380571,-6.23955489630255
617,Strandville Avenue,53.3578945210736,-6.24200909637442
618,Newcomen Bridge,53.35610117796929,-6.244742067603201
619,Amiens Street,53.354044625043,-6.24730533351979
620,Talbot Street,53.350961094443704,-6.252779556903441
621,Talbot Street,53.350517775917595,-6.25626764847559
624,Ribh Road,53.38018530713321,-6.18912523804644
625,Lein Gardens,53.3817875653858,-6.18632129728294
626,Edenmore Green,53.3844945184184,-6.184056419159
627,Edenmore Green,53.38540701702029,-6.18200303261629
628,Edenmore Grove,53.3869549963236,-6.1839065792035495
629,Edenmore Drive,53.3865279695261,-6.18596942471487
630,Springdale Road,53.3872439958543,-6.1893217522728206
633,Tonlegee Drive,53.3896443404853,-6.18935518044474
634,Tonlegee Avenue,53.3902751966557,-6.184141109209981
635,Glenwood Road,53.3890225360691,-6.18392380127641
636,Glenfarne Road,53.3888586595197,-6.18674234809091
637,Springdale Road,53.3877918262056,-6.18988485424514
638,Edenmore Avenue,53.3867623213274,-6.18837999607747
639,Edenmore Park,53.3863330185355,-6.1867444607558895
640,Edenmore Grove,53.3867053852028,-6.18345113980018
641,Edenmore Green,53.38582638284839,-6.182391081461871
642,Edenmore Green,53.3847318483083,-6.18311422897609
643,St Josephs Hospital,53.3835661358844,-6.183885468341019
644,Lein Park,53.3823625142349,-6.185710576646089
645,Ribh Road,53.3801688019276,-6.188629880486209
649,All Saints Road,53.3762836659138,-6.18966656708737
650,Sybil Hill Avenue,53.37540285373711,-6.185525483233781
651,All Saints Park,53.37547945077479,-6.17993090906123
653,Raheny,53.3794630466278,-6.1753416389621405
654,Watermill Road,53.379210075801296,-6.177020980830701
655,Watermill Drive,53.377738671387995,-6.1754304023287405
656,St Anne's Avenue,53.3764702007995,-6.17770919175959
657,All Saints Park,53.3755453978811,-6.17895111704471
658,All Saints Road,53.374980048484794,-6.18313861991678
659,Sybil Hill Avenue,53.375237440683605,-6.185878213489831
664,Donnycarney Church,53.3747192481277,-6.21950756213928
665,Casino Park,53.3724663177962,-6.22212646122617
666,Mount Temple School,53.370233124124205,-6.22426334784648
667,Brian Road,53.3679816454687,-6.226986846511361
668,Marino Crescent Park,53.3645749808616,-6.2293973168947
669,Malahide Road,53.3663170047536,-6.2286789053178
670,Mount Temple School,53.3689561148113,-6.226029663892049
671,Nazareth House,53.370716841971294,-6.224153053155121
672,Donnycarney Road,53.37346635003139,-6.22107782075331
675,Buckingham St Lower,53.352858137718705,-6.248525759477019
709,St Brigid's Church,53.375038059853495,-6.19703913201497
722,Raheny Station,53.3811136996541,-6.17572202474458
723,Raheny Road,53.384151788006804,-6.17572742205121
724,Grange Park Road,53.386955462943405,-6.174510011408991
725,Ardscoil La Salle,53.3895723720669,-6.1704888112674805
726,Grange Road,53.39174835142529,-6.16761378066958
727,Ardara Avenue,53.393704851866595,-6.16683802482064
728,Holy Trinity Church,53.395316210686204,-6.163490594723691
729,Holy Trinity NS,53.3965584588012,-6.16244459517583
730,Grangemore Road,53.398166697731895,-6.16181886879412
738,Grange Road,53.3976003550339,-6.16181320548635
739,Holy Trinity Church,53.3951450858632,-6.16346788917255
740,Ardara Avenue,53.393141277624906,-6.16701261526435
741,St Donagh's Road,53.39190772522429,-6.16745657119044
742,Raheny Road,53.3898234138486,-6.16986158795105
743,Woodbine Park,53.388024863805796,-6.17273523820554
744,Belmont Park,53.385092198803996,-6.1749204843706
745,Raheny Station,53.3813435656084,-6.17547167673021
746,Kildare Street,53.3401536166397,-6.255594281533459
747,Kildare Street,53.339930803028004,-6.255723518735921
748,Huguenot Cemetery,53.338509534397105,-6.25503066600713
749,Baggot St Lower,53.33762070095321,-6.25080214718473
750,Fitzwilliam Street,53.3365710800776,-6.24848750327109
751,Herbert Street,53.335320547927296,-6.246571635527509
752,Baggot St Upper,53.333671654235296,-6.24446202003109
753,Waterloo Road,53.332453390271795,-6.24352105457139
754,Burlington Road,53.330783782374,-6.24428032727376
755,Wellington Lane,53.328828045698096,-6.24514136798765
756,Royal Hospital,53.3263997617809,-6.24259874670305
757,Donnybrook Village,53.324081337159,-6.239586509859331
758,Victoria Avenue,53.32268694295529,-6.237677380431499
759,Donnybrook Stadium,53.320348850844795,-6.2333455168372796
760,Donnybrook Church,53.318330187289,-6.23056195593035
761,Teresian School,53.3161004007996,-6.22748721370695
762,RTE,53.3145170648506,-6.224370944064879
763,Belfield Court,53.3123201447844,-6.2211003190802
769,Belfield Court,53.311901092317804,-6.22132785711797
770,RTE,53.314636187562506,-6.22573181130967
771,Teresian School,53.315880069244,-6.227781522427981
772,Donnybrook Garage,53.318485257456395,-6.23132106360088
773,Donnybrook Road,53.3199163484799,-6.23327331931076
774,Donnybrook Garda Stn,53.3216121235643,-6.235499996419691
775,Donnybrook Village,53.3234897098062,-6.23908544721608
776,Morehampton Terrace,53.3254792402838,-6.241735821060701
777,Royal Hospital,53.3269721601116,-6.24362614364866
779,Waterloo Road,53.3286887363318,-6.24544736264849
780,Burlington Road,53.3310633511706,-6.244343918212019
781,Baggot Street,53.3326262714266,-6.24366410261758
782,Baggot St Upper,53.3335838144594,-6.24460076754328
783,Baggot St Lower,53.3353085373768,-6.246977563969799
784,Fitzwilliam Street,53.3364567280923,-6.2486573714650895
785,Pembroke St Lower,53.3371058976042,-6.25185937348658
786,Embassy of Malta,53.3351467148295,-6.2561740357725295
790,Stephen's Green Nth,53.3392943719705,-6.2583024730144
791,Stephen's Green Nth,53.3388796212347,-6.2569828304902195
792,Dawson Street,53.34044898815289,-6.2585858084511505
793,Dawson Street,53.340859786031196,-6.25840386924726
795,Berkeley Road,53.3587400433,-6.26972427815321
796,Berkeley Road,53.3600182144458,-6.26985278581187
797,Phibsborough PO,53.3607260028228,-6.2746621647210095
798,Rathdown Road,53.35947663614451,-6.27964070094012
799,Charleville Road,53.358868710012295,-6.28173855104542
800,Annamore Parade,53.358065151525295,-6.284610428948059
801,Annamore Road,53.3574704998135,-6.28763908243526
802,Drumalee,53.356498322495,-6.29129872279029
803,Oxmantown Road,53.3547130307126,-6.2940442138599595
804,O'Devaney Gardens,53.3536849851876,-6.295692680533481
807,Phoenix Park,53.3515565121175,-6.297700386084469
808,North Circular Road,53.353994669521704,-6.29534982649483
809,Marlborough Road,53.35526073980721,-6.293376346249469
810,Ellesmere Avenue,53.357099860159295,-6.28999764127668
811,Annamore Road,53.3575671567889,-6.2874849681966305
812,Annamore Parade,53.3582663606545,-6.2842267437379595
813,Charleville Road,53.35919004609939,-6.28095937438318
814,St Peter's Church,53.36054001513929,-6.2760970492999
817,Mater Hospital,53.3596462179702,-6.269612438447651
818,O'Connell Avenue,53.3584811208105,-6.26922394483129
819,Blessington Street,53.3563040208513,-6.26599198569768
820,Carnlough Road,53.36196779514621,-6.2935139795842305
821,Drumcliffe Road,53.364551903506495,-6.293831436354379
822,Mulroy Road,53.3671206776284,-6.291820321104269
823,Kilkieran Road,53.3682351539515,-6.29118965054409
824,Bannow Road,53.369747851895596,-6.2932630949611505
825,St Finbar's Road,53.370429439934505,-6.29693282591368
826,Carnlough Road,53.3712178543801,-6.301169507559139
827,Ventry Park,53.3712939490676,-6.30399186938362
828,Broombridge Station,53.3710448241129,-6.29974867792338
829,St Finbar's Road,53.3703968945613,-6.29591219523139
830,Bannow Road,53.3696243716589,-6.2921709801525
831,Mulroy Road,53.3676619691102,-6.291332812909009
832,Drumcliffe Road,53.363629454606105,-6.2940636348917005
833,Swilly Road,53.3617761473218,-6.293311283839639
834,Binns Bridge,53.3619754108391,-6.26042763798583
835,St Brigid's Rd Lower,53.362628016637295,-6.26327096161364
836,Claude Road,53.3632915018077,-6.26624916236241
837,David Road,53.3637784077139,-6.26821283704861
838,Whitworth Road,53.36431939611871,-6.27018939098137
839,David Road,53.363744920420295,-6.26776341253996
840,Claude Road,53.3632433495651,-6.26540966607283
841,St Patrick's Road,53.362122199530795,-6.26063201536309
842,Stephen's Green East,53.337251975008606,-6.256313389204941
843,Stephen's Green East,53.337002431423706,-6.25645872069955
844,Stephen's Green East,53.3376318720612,-6.25586239848744
845,Leeson St Lower,53.3354534454667,-6.2562516182653605
846,Fitzwilliam Place,53.33345373300239,-6.25411090847852
847,Leeson St Upper,53.331601445165205,-6.2522196196517195
848,Sussex Road,53.329727990818206,-6.24888799835484
849,Appian Way,53.3278982725913,-6.24792700914128
850,Chelmsford Road,53.3260857395333,-6.2511990311679195
851,Chelmsford Road,53.3250997052131,-6.2532210160293795
852,Ranelagh,53.3244292664946,-6.252858085370799
853,Sandford Road,53.32259277000811,-6.2483695770726
854,Larch Grove,53.3216316712804,-6.246577563215129
855,Sandford Road,53.319302298458204,-6.2428153659171794
856,Clonskeagh Road,53.3176551118177,-6.24082667970814
857,Clonskeagh Hospital,53.316567380099,-6.2383798303354
858,Clonskeagh,53.3140944728148,-6.2383015721787505
881,Clonskeagh,53.3145635684128,-6.23841733156693
882,Clonskeagh Hospital,53.316704656538896,-6.239154676493009
883,Eglinton Road,53.3176851573317,-6.2410355833142805
884,Norwood Park,53.319996991216605,-6.2442128444278895
885,Hollybank Ave Lower,53.3212589673343,-6.24629262123036
886,Merton Drive,53.322597396225206,-6.24868463259578
887,Ranelagh,53.3242077457424,-6.2524618068015805
89,Lambay Road,53.3780271155011,-6.26159214988754
893,Cowper Road,53.3160725163387,-6.259158180064159
894,Cowper Road,53.3151931375359,-6.2641919805122495
895,Palmeston Villas,53.31393226426021,-6.26401801846624
896,Palmerston Park,53.3133721496325,-6.26135424684804
897,Palmerston Road,53.3142996202644,-6.258389846018339
903,Chelmsford Road,53.3255834292566,-6.2524956567373895
904,Appian Way,53.3274174409139,-6.248847515740731
906,Leeson St Upper,53.3288107659747,-6.247634377275361
907,St Johns Ambulance,53.3297193588591,-6.25075010860462
908,Grand Parade,53.3311542855373,-6.25237303421837
909,Fitzwilliam Place,53.3331476599204,-6.25407836385524
956,Naomh Barróg GAA,53.389831802114,-6.1529011457283
958,St. Donagh's,53.3909165331514,-6.16378528809514
959,Grange Road,53.3910184657041,-6.166908375989389
960,Tonlegee Road,53.391157619904796,-6.171879305620049
961,Millwood Villas,53.391056829993495,-6.17645454975119
962,Limewood,53.3907949286244,-6.18285597422979
969,Northside SC,53.395682456418704,-6.21548963822034
972,Aulden Grange,53.3969960428868,-6.23492379932207
980,Finglas Sports Centre,53.389804569149106,-6.30303046268453
981,Finglas Garda Stn,53.3897809067965,-6.30706083246075
983,Mellowes Road,53.3901416743217,-6.31095569222059
984,Finglas Garda Stn,53.389911388028004,-6.30675494955134
985,Finglas Sports Centre,53.3899247513554,-6.303897725236091
987,Finglas,53.390219926864205,-6.29937538551073
993,Astro Park,53.3977025969998,-6.22922517485573
1005,Limewood,53.39095140659099,-6.181917083423031
1013,Earlsfort Terrace,53.335481505514004,-6.257556880720121
1015,Adelaide Road,53.3327303534192,-6.25996635506881
1016,South Richmond St,53.331159314190295,-6.264414580355071
1017,Rathmines Rd Lower,53.329299651161605,-6.26447506533579
1018,St Mary's College,53.327585459093505,-6.26464974527369
1019,Military Road,53.32654759762361,-6.26497711774675
1020,Rathmines,53.3251383837983,-6.265109364479611
1021,Rathmines Rd Upper,53.321380246609706,-6.26565212597855
1022,Summerville Park,53.3195217438279,-6.26455667416159
1023,Rathmines Close,53.31704618902079,-6.26491228899517
1024,Frankfort Avenue,53.315852343077204,-6.26502075611143
1025,Trinity Hall,53.3115998654618,-6.26247682304632
1026,Orwell Park,53.3091057707881,-6.260327082197371
1027,Dodder Walk,53.3087379400355,-6.25791094112812
1028,South Hill,53.30849911056129,-6.255714681121451
1062,South Hill,53.308259634182605,-6.25531926586885
1063,Dodder Walk,53.308572081541904,-6.25886311823074
1064,Dartry Road,53.3094291383477,-6.2609292205889595
1065,Trinity Hall,53.3118290249026,-6.26278268022837
1066,Rathmines Rd Upper,53.313753480585206,-6.26408530832734
1067,Rathmines Close,53.3170507712305,-6.26522730644194
1068,Church Avenue,53.32055844472141,-6.26538523670879
1069,Swan Centre,53.3232852636138,-6.265619895412691
1070,Rathmines,53.3249801839839,-6.2653559829168
1071,St Mary's College,53.327218036168205,-6.264724711694889
1072,South Richmond St,53.3310269732615,-6.2645851139549995
1074,Harcourt Luas,53.33379545952501,-6.26397720072462
1076,Swan Centre,53.3231305919137,-6.265491062608781
1077,Rathmines Garda Stn,53.3215729885363,-6.266544984992059
1078,Rathgar Place,53.3194127648961,-6.2688090703569195
1079,Frankfort Avenue,53.316654624195,-6.270751874268769
1080,Auburn Villas,53.314909198719995,-6.271873063496421
1081,Rathgar Village,53.312649702858494,-6.2734951734876905
1082,Terenure Road East,53.3116759487051,-6.27577063203848
1083,Brighton Road,53.311145561261206,-6.27825325307522
1085,St Joseph's BNS,53.3100994852269,-6.2823773139730195
1086,Terenure Road West,53.309669570516995,-6.2856060830046
1087,Greenlea Rd,53.3103351137706,-6.289391260075161
1088,Parkmore Drive,53.31097358878571,-6.293177632557139
1089,Lavarna Grove,53.311655585547896,-6.29750266095145
1117,Terenure Road West,53.311890649860295,-6.298228687986981
1118,Hazelbrook Road,53.3113669927809,-6.294917828277759
1119,Parkmore Drive,53.3109356902429,-6.29241376344748
1120,Terenure Garda Stn,53.31019810523151,-6.287986059303599
1121,Templeogue Road,53.309001597638996,-6.28540774793678
1122,Rathdown Park,53.307219634287904,-6.288375352529
1123,Lakelands Park,53.3055770247362,-6.29103703014003
1124,Terenure College,53.3041728176727,-6.29340389752316
1159,Bushy Park House,53.3023902202114,-6.29634084228481
1160,Terenure College,53.3043935295039,-6.29312500171524
1161,Lakelands Park,53.30606313614861,-6.29046240113905
1162,Rathdown Park,53.3077322505985,-6.28776959714466
1163,Terenure Library,53.3088733210509,-6.285863091797
1164,Terenure Road East,53.310411636112,-6.28158440093588
1165,Brighton Road,53.3117124365726,-6.2764295038561
1166,Winton Avenue,53.3138905067959,-6.272904784053909
1167,Garville Avenue,53.3159449091969,-6.27139594843825
1168,Spire View Lane,53.3179291684229,-6.270009882564301
1169,Rathmines Park,53.320056264563796,-6.2685578599023195
1170,Rathmines Garda Stn,53.3216895475268,-6.26652524878682
1171,Gardiner Street Lwr,53.3503176870278,-6.25426294905816
1172,Railway Street,53.3517433497818,-6.255256217327019
1173,Gardiner Street Lwr,53.3537055683619,-6.25667832329378
1174,Mountjoy Sq West,53.3561865814553,-6.25854512541127
1175,Gardiner Street Upr,53.358413194467495,-6.260843182097629
1176,Coolock Lane Park,53.3993550470663,-6.22187780324987
1177,Clonshaugh Ind Est W,53.4008973630857,-6.225257482808419
1178,Clonshaugh Ind Est N,53.40345340969339,-6.2188492428262805
1179,Clonshaugh Ind Est E,53.399931149594096,-6.21892118309895
1184,Moland Street,53.3508599227616,-6.25385022800024
1185,Oak Road,53.37636701411451,-6.221513046469259
1186,Belton Park Road,53.3776431058381,-6.226329937860349
1187,Celtic Park Road,53.3786075086963,-6.231355441132459
1188,Grace Park Heights,53.3800184911148,-6.23559608319271
1190,Grace Park Heights,53.3801561172424,-6.2357858077938495
1191,Grace Park Meadows,53.37921718835071,-6.23307384015293
1192,Celtic Park Road,53.3786331967669,-6.23066293111017
1193,Grace Park Meadows,53.3779921991337,-6.227442768848929
1194,Belton Park Road,53.3775262086297,-6.22511728190606
1195,Oak Road,53.3763899322038,-6.2212415396414995
1196,Elm Mount Road,53.37804103379229,-6.214438721640099
1197,Killester Avenue,53.3792322771541,-6.211758333003369
1198,Mornington Grove,53.3825121951938,-6.20691559067275
1199,Mask Avenue,53.384984462780196,-6.2027676144828705
1200,Chanel College,53.38696264866421,-6.20103048909782
1201,Brookville Cresent,53.390789812552605,-6.19614784293635
1202,Newtown Cottages,53.3925013826657,-6.1934290504328
1203,Newtown Road,53.3967263536318,-6.18753567030054
1205,Clare Hall,53.40150260488149,-6.181858229286361
1218,Belcamp Lane,53.399705896925106,-6.1842809197153
1219,Danieli Road,53.381302127091296,-6.208334392068401
1220,Killester Avenue,53.3787625062963,-6.2121989015381205
1221,Mayfield Park,53.376816500074604,-6.21609825408432
1222,Ardlea Road,53.3840661618381,-6.2068502818338604
1223,Chanel Avenue,53.385250619879706,-6.20851435239846
1224,Maryfield Crescent,53.3866441577972,-6.210936491153481
1225,Maryfield Drive,53.38685937921699,-6.2139042693124695
1226,Ardmore Drive,53.3885824619193,-6.2149296761591195
1227,Castlekevin Road,53.391137310766794,-6.215078366051429
1228,Kilbarron Road,53.3924289765026,-6.21851273726681
1229,Kilbarron Drive,53.394311601173804,-6.22542628929809
1231,Castletimon Road,53.3954889982952,-6.22784342643992
1232,Castletimon Park,53.395285483527495,-6.230483410014429
1233,Castletimon Drive,53.3943619874017,-6.2312435009055305
1234,Ballyshannon Avenue,53.3946878729395,-6.23261339665838
1235,Kilbarron Road,53.3947366847022,-6.225604084189481
1237,Cromcastle Avenue,53.3926786800006,-6.218983472301099
1238,Kilmore Avenue,53.3915662233617,-6.2149100569504405
1239,St John of Gods NS,53.3890041898569,-6.21488195784464
1240,Maryfield Crescent,53.3868184280309,-6.211169732339469
1241,Chanel Avenue,53.3858794293715,-6.209089308046909
1242,Ardbeg Road,53.3844919489066,-6.2070729228125
1243,Greencastle Avenue,53.394900313149606,-6.19991374132285
1244,Cromcastle Green,53.392907241620904,-6.22044750297315
1245,Glin Avenue,53.397997268691796,-6.206219409556151
1246,Kilbarron Park,53.3934932334641,-6.222979288564289
1247,Greencastle Road,53.3950810945078,-6.199981297224751
1248,Coolock Ind Estate,53.392989335862296,-6.1971675233716
1249,Coolock Drive,53.395180964897,-6.20124021736032
1250,Bunratty Road,53.3937390061016,-6.20755634582152
1251,St Luke's Church,53.3934573359116,-6.22237931759755
1253,Tranquility Grove,53.3938639430734,-6.21469359247888
1254,Bunratty Road,53.3951173598318,-6.211362996430581
1255,Adare Park,53.3943535024698,-6.20897407318865
1256,Bunratty Avenue,53.393630945773204,-6.206944379993369
1258,Priorswood Road,53.3981874224997,-6.190827135834071
1259,The Link Road,53.398590409753396,-6.194885484508769
1260,Ferrycarrig Green,53.4001778029103,-6.198818683470969
1262,Moat Avenue,53.4020042292143,-6.20490781615746
1265,Marigold Avenue,53.398221529722,-6.1907053813918305
1266,Priorswood Road,53.4020554115162,-6.20472518436224
1267,Ferrycarrig Park,53.4008555065983,-6.20024887014065
1268,Belcamp Avenue,53.399894267545,-6.19789824293475
1269,Marigold Road,53.398428959518604,-6.19371931703876
1270,Newtown Road,53.3964970026804,-6.18722962380558
1272,Newtown Cottages,53.3928823822332,-6.19187918573735
1273,Coolock Leisureplex,53.3911092146034,-6.19527728871211
1274,St Brendans Church,53.3889388170324,-6.19797019366675
1275,Mask Avenue,53.385585765333005,-6.20211085795637
1276,Mask Park,53.3843305541152,-6.202915428661469
1277,Mornington Grove,53.382681460208595,-6.2062169636168
1278,College Green,53.344236622436505,-6.26130011810001
1279,College Green,53.344260493598206,-6.26170466649099
1280,McKelvey Avenue,53.4001962883511,-6.303143292597509
1282,S Great George's St,53.342341795881396,-6.2645010827272705
1283,S Great George's St,53.3418087219088,-6.26492822950029
1284,Redmond's Hill,53.338128350968894,-6.26587355723321
1285,Camden Street Lower,53.3343784055905,-6.265124754257161
1286,Harrington Street,53.3324996495011,-6.265726534840749
1287,Synge Street,53.332478372565205,-6.2661177906656595
1288,Victoria Street,53.3323227536349,-6.2696376223493
1289,Longwood Avenue,53.3321293613202,-6.2730388327702205
1290,Clanbrassil St Upper,53.3307310456567,-6.275167318805691
1291,Harold's Cross Road,53.3284466111575,-6.27631044140605
1292,Harold's Cross Park,53.3256246051373,-6.27819570402239
1293,Parkview Avenue,53.3228603639143,-6.279102629732799
1294,Lady of the Rosary,53.320600026276296,-6.2788033062774895
1295,Kenilworth Park,53.3179148923088,-6.279586817126289
1296,Mount Tallant Avenue,53.315562746136706,-6.281647622924741
1297,Whitton Road,53.3124096124198,-6.28238961414191
1298,Terenure,53.3107469924743,-6.28302665100765
1299,Rathfarnham Road,53.308395702782,-6.28390135641409
1300,Rathdown Park,53.3061507463875,-6.28342117670719
1335,War Memorial Hall,53.30741742435679,-6.28400061997859
1336,Terenure,53.308900905977296,-6.28403115972443
1337,Terenure Road North,53.3111790373761,-6.28306934104816
1338,Whitton Road,53.31243038626489,-6.28258388430714
1339,Harold's Cross Road,53.3150238623425,-6.28229964697711
1340,Mount Tallant Avenue,53.316470142273296,-6.28099578090545
1341,Kenilworth Park,53.319227589464,-6.278993635757309
1342,Lady of the Rosary,53.3213454991002,-6.27938875924035
1343,Harold's Cross Park,53.3226672850436,-6.2794256441173495
1344,St Claire's NS,53.3271710643832,-6.27760796335834
1345,Le Vere Terrace,53.3287960763055,-6.2762362963887695
1347,Clanbrassil St Upper,53.3311830098588,-6.2753442727446505
1348,Spencer St South,53.3322495353642,-6.273889832824169
1349,Carlisle Street,53.332385727906704,-6.27088132287852
1350,Harrington Street,53.3325610927835,-6.26748081181982
1352,Camden Street Lower,53.334445431609794,-6.265407333808239
1353,Pleasants Street,53.3360095336323,-6.265418937999621
1354,Aungier Street,53.339048088889506,-6.266076514857559
1355,Whitefriars Street,53.3400962425911,-6.26583875541442
1357,Exchequer Street,53.342567894408,-6.264597030208121
1358,Dame Street,53.344304713387295,-6.2628893893907795
1359,College Green,53.344399406363706,-6.2613685904336105
1360,Raymond Street,53.3319833877872,-6.276618277525481
1362,National Stadium,53.3312039603929,-6.279907873522201
1363,St Anne's Road S,53.3318459312232,-6.2851672650217
1364,Dolphin Avenue,53.332345873944206,-6.288060120347019
1365,Dolphins Barn Church,53.3329015319263,-6.29045531304387
1366,St Andrews Centre,53.3351498676865,-6.2943145905953495
1367,Rialto Church,53.3356852929589,-6.29656066348709
1369,Mayfield Road,53.338867215027506,-6.30224552041048
1370,Hybreasal House,53.33918858080179,-6.305251245565901
1371,Suir Road,53.338876164488106,-6.30793670636019
1372,Goldenbridge Avenue,53.3381036945503,-6.30987444642342
1373,Stephen's Road,53.337774759113906,-6.312034865450141
1374,Southern Cross Ave,53.3392177102615,-6.31301407116768
1375,Bulfin Road,53.3395561606235,-6.312159731856281
1376,South Circular Road,53.339507910587905,-6.30875267180085
1377,South Circular Road,53.3391633646071,-6.30474165527077
1378,Mayfield Road,53.3388278749061,-6.30137608273123
1379,Rialto Luas,53.337339701353905,-6.299122653209361
1380,Rialto Church,53.3356410022647,-6.29597679911966
1381,St Andrews Centre,53.3351237466286,-6.29374502629878
1382,Dolphins Barn Church,53.333173170672296,-6.290594602058889
1383,Dolphin Avenue,53.3322710783564,-6.28660666292568
1384,Dufferin Avenue,53.331356198185304,-6.28236415375612
1385,Griffith College,53.3318004002752,-6.278262271833039
1386,Clogher Road,53.32955261862929,-6.28444849901101
1387,Aughavanagh Road,53.328040549369895,-6.28680623917289
1388,Rutland Avenue,53.3267732721488,-6.29119578868491
1389,Pearse College,53.325935942055104,-6.29549287147593
1396,Crumlin Pool,53.324900268239695,-6.31496013722762
1397,Kildare Road,53.3250914014158,-6.31385670005281
1398,Windmill Road,53.3253013793664,-6.31027545066514
1399,Monasterboice Road,53.3251428005791,-6.305432703103699
1401,Clogher Road,53.3253968158949,-6.29865198476896
1402,Pearse College,53.3259879311191,-6.295986219725339
1403,Rutland Avenue,53.3271540648883,-6.289544133366821
1404,Aughavanagh Road,53.3282005181194,-6.28667972051605
1405,Parnell Road,53.3298216746258,-6.28440767368214
1406,Dolphin's Barn,53.333152931453895,-6.291691526840951
1407,Crumlin Road,53.331538502772105,-6.2944436769087995
1409,Loreto College,53.330366744766906,-6.297358155575839
1410,Keeper Road,53.3314169223644,-6.29977873066411
1411,Brickfield Drive,53.3320510264275,-6.30328200417231
1412,Slievenamon Road,53.3326816543077,-6.305914642678321
1413,Brickfields Park,53.3334413912394,-6.30878249418879
1414,Benbulbin Road,53.3333476064743,-6.3123148014032395
1415,Sperrin Road,53.3324432485395,-6.316374520925981
1417,Lady Of Mercy School,53.331032212794504,-6.31956811898513
1418,Cooley Road,53.330029759237,-6.323060770060541
1419,Brandon Road,53.3277177272266,-6.3229112430654695
1423,Crumlin Hospital,53.3249994890353,-6.31944492192624
1424,Crumlin Hospital,53.3256625125872,-6.31674662153121
1425,Cooley Road,53.327013171977704,-6.31819475352092
1426,Curlew Road,53.329274878846505,-6.32242977116858
1427,Mourne Road,53.330271158414,-6.322330619379031
1428,Lady of Mercy School,53.3313588786132,-6.319149884012639
1429,Sperrin Road,53.332593207169,-6.31617341926301
1430,Belbulbin Road,53.3335737954755,-6.311149686468741
1432,Brickfields Park,53.3334987403076,-6.308389825738139
1433,Slievenamon Road,53.3325721532017,-6.305798861992309
1434,Keeper Road,53.3319924475924,-6.3023233791527
1435,Keeper Road,53.331388046270504,-6.29901413246611
1436,Herberton Road,53.330884957695204,-6.29651171993402
1438,St Thomas Road,53.3363829768561,-6.279414136183809
1439,Rutledge Terrace,53.3340584156818,-6.2827660992130605
1440,Donore Avenue,53.331990059382704,-6.28331465216842
1441,Bangor Road,53.3248749009922,-6.303026333221821
1442,Clonard Road,53.3251668742259,-6.30712815477075
1443,Civic Offices,53.3451293906946,-6.2695395586260405
1444,Merchant's Quay,53.3450180037747,-6.274260190931059
1445,Usher's Quay,53.345678410254706,-6.27828883961715
1447,Victoria Quay,53.346629644517,-6.28817874961114
1449,Phoenix Park Gate,53.348152829997,-6.297896094677171
1450,Conyngham Road,53.3481554042365,-6.301861413117651
1451,Bridgewater House,53.3482782789373,-6.305446444965839
1452,Islandbridge,53.3454209055027,-6.30803799944731
1453,Galtymore Road,53.3345361691524,-6.30675710143034
1454,Suir Road Luas,53.337775553029395,-6.30764991026492
1455,Slievenamon Road,53.3353851151121,-6.30577746031333
1456,Good Counsel GAA,53.3348733091399,-6.3089811069230795
1457,Benbulbin Road,53.3353026587009,-6.31264303832715
1458,Davitt House,53.3347706199242,-6.316973574849389
1459,Drimnagh CU,53.33406331542751,-6.3197192372277
1460,Carrow Road,53.3323561008265,-6.32103258420219
1462,Galtymore Park,53.3304629315901,-6.3238245198261
1463,Galtymore Road,53.330623994860495,-6.3237731617296
1464,Davitt House,53.33489880154,-6.316503036703651
1465,Good Counsel GAA,53.3347967644646,-6.308653787236719
1466,Galtymore Drive,53.3345289258302,-6.30624685358973
1467,Slievenamon Road,53.335657376025296,-6.3059618778838
1468,Suir Road Luas,53.3375666016205,-6.3074929995443405
1469,Benbulbin Road,53.3352591593221,-6.313380538153879
1471,Islandbridge,53.3455323202016,-6.30828892049287
1472,Conyngham Road,53.348429467980296,-6.30596616966109
1473,Phoenix Park Gate,53.348305978475,-6.29855089897711
1474,Parkgate Street,53.347947915960596,-6.292361704640889
1476,Sarsfield Quay,53.3470736855785,-6.28467627539544
1478,Four Courts,53.3456460888719,-6.27294312668559
1479,Ormond Quay Upper,53.3459159600301,-6.26923734421882
1480,Ormond Quay Upper,53.345765964654795,-6.2706702977241
1481,Melrose Avenue,53.3650538686145,-6.23989609720876
1482,Marino Institute,53.3717085781546,-6.23648064555364
1484,Philipsburgh Avenue,53.3636977091106,-6.23996702932875
1485,Philipsburgh Avenue,53.3640458177018,-6.23980241692241
1486,Morrogh Terrace,53.370974778306106,-6.238524809022
1487,Marino Institute,53.3718192548952,-6.236671449963679
1488,Turlogh Parade,53.3710888554265,-6.23468777023618
1489,Marino Church,53.3701586652352,-6.231961007602299
1490,Árd Scoil Rís,53.3688768216928,-6.228557661748231
1491,Griffith Avenue,53.3684677618883,-6.227642909798321
1492,Marino Church,53.3702573904224,-6.23255805716228
1493,Turlogh Parade,53.371213404461606,-6.23520862720412
1494,Croydon Park,53.3706730149288,-6.23574194163247
1495,Croydon Park Avenue,53.368755940571205,-6.23556569739483
1496,Marino Green,53.367148116615105,-6.23381383826087
1499,Brian Road,53.36577948870979,-6.23729658684479
1500,Connolly,53.351039588906005,-6.25016257775473
1505,Parnell Street,53.354028963184206,-6.2578969848713495
1506,Finglas Road,53.36677782141889,-6.272373909195241
1507,St Vincent's School,53.36839052031429,-6.274502691641341
1508,Glasnevin Cemetery,53.36991090226561,-6.278333551156759
1509,Slaney Road,53.3729258340444,-6.284223660488269
1510,Ballyboggan Road,53.3769069295235,-6.287310237187071
1511,Tolka Vale,53.378234523180296,-6.28775298457063
1512,Prospect Hill,53.382174322341,-6.29172883549392
1514,Drogheda Mall,53.3894651562236,-6.300021914460549
1515,Marino Park,53.366114316144,-6.23319541821684
1518,Kildonan Road,53.3906003885119,-6.31161412406024
1519,Kildonan Park,53.3924448695621,-6.3117516179852196
1520,Barry Road,53.393920198927,-6.31184358657781
1521,Plunkett Green,53.397221299299204,-6.31075049408939
1523,Plunkett Avenue,53.3978788506155,-6.30958155709758
1524,Barry Road,53.3955562648948,-6.310590887143849
1525,Casement Drive,53.394069295802495,-6.311582061617349
1526,Kildonan Park,53.392306937033204,-6.311531536625051
1528,St David's Terrace,53.3561954281573,-6.294000025729471
1529,Finglas Village,53.388458826929394,-6.298152606897731
1531,Clearwater SC,53.383743664029595,-6.2933647409308096
1532,Prospect Hill,53.38174411723121,-6.29055850090001
1533,Tolka Vale,53.3789678847602,-6.287498088002059
1534,Ballyboggan Road,53.3753328391602,-6.28597560287492
1535,The Willows,53.372305958139705,-6.28236994393795
1536,Glasnevin Cemetery,53.369503397170895,-6.27687723281354
1537,St Vincent's School,53.3680662049802,-6.273208398936959
1538,Clearwater SC,53.384474141314,-6.29479375491459
1539,Glasanaon Road,53.38313579906821,-6.27919801572368
1540,Johnstown Park,53.384340309979706,-6.28420062884392
1547,McKee Avenue Est,53.39524116581801,-6.30168636640579
1548,Kylemore Bakery,53.396110145012706,-6.3027494932782995
1549,Plunkett Road,53.39743265611429,-6.30663678307133
1558,McKelvey Avenue,53.399817510995206,-6.30305309451753
1559,Plunkett Road,53.3973411212982,-6.30652011500245
1560,St Margaret's Road,53.3970075423561,-6.304548381458741
1566,Johnstown Park,53.3844074206099,-6.2838671966122694
1567,Griffith Drive,53.3840139569899,-6.28026002177014
1573,Wellmount Drive,53.3840241647337,-6.3124606624242805
1574,Cardiffsbridge SC,53.3855939979934,-6.31287964710483
1575,Coláiste Íde,53.387066142573396,-6.31274625802593
1576,Cappagh Road,53.389317405492896,-6.31304812471738
1577,Abbottstown Road,53.389885808056796,-6.31574701686641
1578,Ratoath Drive,53.3903851294561,-6.31801267740448
1579,Cappagh Hospital,53.3935215772456,-6.323738176628231
1582,Cappagh Road,53.3927698845672,-6.32205359231625
1584,Abbottstown Road,53.3898854600317,-6.31508548205004
1585,Cardiffsbridge Road,53.3887680197466,-6.3123331449044295
1586,Coláiste Íde,53.386525040621606,-6.31261731806409
1587,Wellmount Drive,53.383466430316,-6.3117912065006605
1591,Wellmount Road,53.387138791854895,-6.299498213244081
1592,Tolka Valley Road,53.3797209189472,-6.289241605225789
1593,Tolka Valley Park,53.378914773396794,-6.29445974940208
1594,St Helena's Road,53.3807131944326,-6.29766484522035
1595,St Helena's Drive,53.380739500306504,-6.297618699731821
1596,St Malachy's NS,53.38304109530371,-6.30081905725311
1597,Valeview Gardens,53.3804552155962,-6.30923466596558
1598,Valeview Drive,53.380242178032,-6.30562044005666
1599,Cardiffsbridge Road,53.3808997507127,-6.310795416157809
1600,Deanstown Avenue,53.3835970178885,-6.31276318351177
1604,Rathvilly Road,53.3837454770678,-6.31627504223629
1606,St Helena's Road,53.38037068357799,-6.30644208983682
1607,Dunsink Drive,53.3821613835455,-6.30342464753533
1608,St Malachy's NS,53.383049856855294,-6.29954091872954
1609,Cloonlara,53.38038423807771,-6.297287139577709
1610,Tolka Valley Park,53.3788077072738,-6.29640307065506
1614,Church Street Upper,53.351257387824404,-6.2737527635737695
1615,Church Street,53.3478271653639,-6.2745973323312905
1616,St Michan's Church,53.347285072296295,-6.2750247730075
1617,Capuchin Church,53.3493312079573,-6.27480696433908
1618,Church Street Upper,53.350887058124,-6.27424841870736
1619,Constitution Hill,53.3529126950441,-6.27323519870157
1620,Whitehall Church,53.383262857290894,-6.24410591269657
1641,Ellenfield Park,53.386527284436795,-6.2423929664578495
1642,Whitehall Church,53.383947889346,-6.24362672228704
1643,St Aidan's School,53.3848022173771,-6.251003095357139
1647,Blackhall Place,53.348351063570206,-6.282251726202659
1648,Stoneybatter,53.351091367532504,-6.28280248510498
1649,Manor Street,53.3525701350153,-6.2843804484789905
1654,St David's Terrace,53.3561451797316,-6.294257429955269
1655,Blackhorse Avenue,53.356732171849096,-6.2969682741151
1656,McKee Park,53.357297279002296,-6.29877863774799
1657,Dunard Walk,53.3583921080657,-6.3030769992369695
1658,Skreen Road,53.3619888217461,-6.309515187905999
1659,Croaghpatrick Road,53.363259965051405,-6.304716699035981
1660,Cabra Garda Station,53.3651865517894,-6.30937355306513
1661,Our Lady's Church,53.3664436172429,-6.3130955377938305
1662,Baggot Road,53.3675406916971,-6.31759043995829
1664,Ashtown Grove,53.3694085180304,-6.32385863047436
1665,Kempton,53.370657837755296,-6.327701930034761
1666,Ashtown Roundabout,53.3715971506497,-6.330595731122051
1667,Castleknock Road,53.37086976704921,-6.334501519476
1668,Old Race Course,53.370842740369504,-6.34030355015355
1694,Old Race Course,53.3710173888675,-6.33993607589944
1695,Ashtown Gate,53.3710101423775,-6.33425558646772
1696,Ashtown Roundabout,53.3715415173194,-6.32983144331408
1697,Kempton,53.3708011457473,-6.32766625894212
1698,Ashtown Grove,53.3695772972038,-6.32371675132506
1699,Baggot Road,53.36874360567371,-6.321314995364441
1700,Baggot Road,53.367708828058795,-6.31740348546712
1701,Our Lady's Church,53.3665672561436,-6.3129403827243795
1702,Navan Road Church,53.3656108301747,-6.3101381385887
1703,Cabra Garda Station,53.364735399023296,-6.30734783376237
1704,Skreen Road,53.3630522662101,-6.305280898672639
1705,Ardpatrick Road,53.3621807471622,-6.308470833694071
1706,Blackhorse Avenue,53.3600698256017,-6.30729237527241
1707,Dunard Walk,53.358428266351005,-6.302459572671269
1708,Mc Kee Park,53.357332354476796,-6.29871714548449
1709,Glenbeigh Avenue,53.356868201679,-6.29705299143723
1710,Aughrim Street,53.355569904027604,-6.2917414914794305
1711,Holy Family Church,53.354577975491196,-6.2896329015686705
1712,Aughrim Court,53.35333391700539,-6.2862425917638
1713,Manor Street,53.35190782001921,-6.28332547345319
1714,Stoneybatter,53.3506378069393,-6.28188938800197
1715,Blackhall Place,53.347711982180606,-6.28218729951852
1724,Clontarf Road,53.3657153153797,-6.17444158948892
1725,Doyle's Lane,53.363760262694505,-6.17707965691359
1726,Dollymount Park,53.36229138967071,-6.17918587611657
1727,Bull Island,53.3604468636668,-6.18318608956806
1728,Wooden Bridge,53.359656274357704,-6.186164596251251
1729,Clontarf Bus Garage,53.3584969058401,-6.190315509740469
1730,Vernon Court,53.3582310907444,-6.19412792894385
1731,John the Baptist Ch,53.359076753421796,-6.19655620427261
1732,Oultan Road,53.360062910763105,-6.20234423812548
1733,Clontarf Baths,53.360212615517504,-6.206319559758719
1734,Castle Avenue,53.36039096111429,-6.21101490848604
1735,The Stiles Road,53.361143327093494,-6.21443920712782
1736,St Lawrence Road,53.3621421815557,-6.21692174662779
1737,Alfie Byrne Road,53.3628580243677,-6.219716720909691
1738,Clontarf Rd Pitches,53.3634508756384,-6.22391433414585
1739,Clontarf Station,53.363885194633596,-6.22652585924785
1740,Clontarf Road,53.364141616748896,-6.22684578734125
1741,Alfie Byrne Road,53.3631169030887,-6.2208028234690795
1742,St Lawrence Road,53.36212579331821,-6.21642658486156
1743,The Court,53.3611356864334,-6.2139286665119196
1744,Scoil Uí Chonaill,53.36034863989779,-6.208792977006731
1745,Clontarf Baths,53.360347079663704,-6.2056978849680995
1746,Oultan Road,53.360256519050395,-6.2026666379275595
1747,John the Baptist Ch,53.3593509922763,-6.1968601414526905
1748,Fortview Avenue,53.3582570201159,-6.193465761821849
1749,Clontarf Bus Garage,53.3585903733516,-6.190551940152731
1750,St Anne's Park,53.3688677027289,-6.17780832862961
1751,Wooden Bridge,53.3598698762831,-6.1854343270318
1752,Bull Island,53.361127591709995,-6.18184991858559
1753,Dollymount Park,53.36272396285,-6.1786715731810595
1754,Doyle's Lane,53.364115656471995,-6.176809033574621
1755,Seapark,53.366429976975205,-6.18712407524484
1756,Dollymount Avenue,53.367209908045595,-6.182853198627809
1757,Park Lawn,53.368629641890294,-6.18223672762254
1758,Mount Prospect Ave,53.368129675904505,-6.175390292328191
1759,The Oaks,53.3660002227331,-6.17426410843024
1760,Seapark Road,53.365972244654294,-6.1877596219230195
1761,Seafield Road Junc,53.3638373979459,-6.18804557985461
1762,Seafield Road,53.3637511873709,-6.1912498353920995
1763,Vernon Avenue,53.3644067789443,-6.195369375252321
1764,Blackheath Park,53.3658929687458,-6.19557704044876
1765,Blackheath Grove,53.36655142408279,-6.20228141366135
1767,Clontarf Castle,53.363827318106296,-6.205221053233861
1769,Park Lawn,53.3688857835725,-6.181940286464711
1770,Dollymount Avenue,53.367083468782205,-6.182813498189571
1771,St Gabriel's Road,53.3660419203349,-6.185247140158791
1772,Clontarf Cemetery,53.36501074751679,-6.20502103771957
1773,Blackheath Park,53.366810913445605,-6.20339753583727
1774,Blackheath Avenue,53.3661362371245,-6.197400064715559
1775,Vernon Avenue,53.364439983337,-6.1951876537006
1776,Seafield Road,53.3638160053906,-6.191968351603769
1777,Seafield Avenue,53.3653120792186,-6.19104846595943
1778,Mount Prospect Ave,53.3666136880735,-6.18915998517218
1782,Brookwood Grove,53.3823894993434,-6.198171650741269
1783,McAuley Road,53.3838032158953,-6.195962181655
1784,Gorsefield Court,53.384620981286204,-6.19298101335639
1785,McAuley Park,53.382596063310395,-6.1916236149297
1786,McAuley Park,53.381994136399,-6.1922354017286905
1788,Millbrook Road,53.39161405106529,-6.17880643395268
1789,Clonrosse Drive,53.39426245742829,-6.17860311918013
1791,O'Tooles GAA,53.39658744534861,-6.18194749011514
1792,Millbrook Road,53.3935247615088,-6.17855943972049
1793,Milbrook Grove,53.391684304674904,-6.17869818119331
1794,Thornhill Lane,53.3694410695116,-6.17945199515191
1795,Rosecourt,53.361503395624894,-6.29686814224352
1796,McAuley Park,53.3817893455832,-6.19117676197816
1797,McAuley Drive,53.3831278453886,-6.191721340301981
1798,McAuley Road,53.3843839100412,-6.19453950864006
1799,Mask Crescent,53.3830586828386,-6.19665511759699
1800,Lady of Mercy Church,53.3823067907448,-6.199242471711201
1801,Brookwood Ave,53.38239699844149,-6.202245228161019
1802,Cabra Road,53.361380323442795,-6.29454414549559
1803,Cabra Road,53.3615635987059,-6.29416119396318
1804,Rosecourt,53.3616973947126,-6.297236037166541
1805,Dunard,53.361162703910104,-6.29755786085371
1806,Navan Road,53.3629069059108,-6.3026421420981205
1807,Phoenix Park Avenue,53.37441446431,-6.33926288340452
1847,Old Racecourse,53.3729020091403,-6.333926260973651
1905,Skreen Road,53.363317546166,-6.30307659409079
1906,Old Cabra Road,53.3612007620224,-6.29707553938407
1907,Glenbeigh Road,53.359904945355204,-6.29382178508832
1908,Cabra Drive,53.3586907975506,-6.29125607276839
1909,Prussia Street,53.3569602631532,-6.28841072316952
1911,Prussia Street,53.3566345096153,-6.288258519152089
1913,Cabra Drive,53.3588063320742,-6.291792324736151
1914,Glenbeigh Road,53.3602157626916,-6.2948160274661
1934,Dame Street,53.344118360696704,-6.26552532473915
1935,Lord Edward Street,53.343934346218205,-6.268326351574039
1937,High Street,53.34308749922071,-6.273151674334789
1938,Thomas Street,53.342977894971,-6.27676060847674
1939,Bridgefoot Street,53.342998268343706,-6.28066466654276
1940,James Street,53.3435386006496,-6.28573434793228
1941,Steeven's Lane,53.343345401985296,-6.2891814202645895
1942,St James Hospital,53.3422549834013,-6.29463172936889
1943,Mount Brown,53.3413732637012,-6.2983463657131304
1944,Old Kilmainham,53.3406753265063,-6.30361540534036
1945,Inchicore Library,53.340554784171296,-6.30968740041893
1946,Richmond Park,53.3401188049337,-6.316357476886769
1947,Camac Close,53.339817856505,-6.317961195206929
1948,Tyrconnell Road,53.3386619960493,-6.32204630155484
1949,Tyrconnell Park,53.3376414796005,-6.3236180803467406
1950,Oblates Church,53.33602104424911,-6.3259941339744605
1951,Blackhorse Luas,53.3331348380343,-6.32912521917044
1952,Lansdowne Valley,53.331709515443706,-6.330036767871141
1953,Bluebell Luas,53.329994499494,-6.33208562071691
1954,Muirfield Drive,53.3287741741445,-6.334805659054741
1955,Carriglea Ind Estate,53.327945707172795,-6.33791566337677
1956,Kylemore Luas,53.326365417926205,-6.34384709401733
1981,Kylemore Luas,53.3264867532149,-6.34481822747154
1982,Kylemore Road Junc,53.3272299503099,-6.34202704890604
1984,Bluebell Luas,53.3294445318972,-6.33389372947135
1985,Blackhorse Luas,53.3329236566384,-6.329448791314549
1986,Tyrconnell Road,53.335355379650494,-6.32723649887246
1987,Oblates Church,53.3362899055545,-6.32593855473873
1988,Hampton Court,53.338260381502295,-6.32288800493356
1989,Emmet Road,53.3397064788474,-6.31898677046974
1990,Myra Cottages,53.340472781797,-6.314691573139499
1992,Inchicore Library,53.3406544981538,-6.309112777019731
1993,Old Kilmainham,53.3408536613947,-6.3047797266404295
1994,Mount Brown,53.341423962847,-6.29938060050005
1995,Basin Street Lower,53.3426751859688,-6.293218227456911
1996,James Street,53.34356007183639,-6.288481953763981
1997,Thomas Street,53.3435710812152,-6.285492741561461
1998,Bridgefoot Street,53.3431396149005,-6.280493772137071
1999,Francis St Junc,53.34311923583321,-6.2765897013646
2001,High Street,53.3433104732332,-6.273653305355491
2002,Lord Edward Street,53.34377080658879,-6.26944439003136
2003,Exchange St Upper,53.3440412686027,-6.268261941595661
2085,RTE,53.3151737463896,-6.220186156196901
2086,Nutley Avenue,53.3181567845514,-6.21470338209087
2087,Ailesbury Road,53.32060947164371,-6.21282968501495
2088,St Vincent's Hosp,53.317296689349696,-6.21609017469618
2089,RTE,53.3153019937698,-6.219745553617849
2094,Coombe Hospital,53.3347519664071,-6.289750638197139
2095,Crumlin SC,53.32903746677879,-6.3024707515014695
2096,Guinness RFC,53.32808359048321,-6.3068174910165
2097,Iveagh Gardens,53.327432754035705,-6.309725806389941
2099,Drimnagh Road,53.3255615813935,-6.31660046938247
2101,Crumlin Hospital,53.32495456521811,-6.31817063885903
2102,Balfe Road,53.32419484607679,-6.3261419021800895
2103,Walkinstown Road,53.3220826954818,-6.32999241707335
2105,Walkinstown Parade,53.3236525793907,-6.3374970776540005
2181,Long Mile Road,53.323837685347904,-6.339171213986219
2182,Walkinstown Parade,53.3239619234595,-6.33518822198745
2183,Walkinstown Shop Cen,53.32170398083979,-6.330547608848231
2184,Drimnagh Road Junc,53.3229966132193,-6.329146097423049
2185,Slievebloom Road,53.3242587027691,-6.327490489305509
2186,Crumlin Road,53.326933284343795,-6.31253797965369
2187,Iveagh Grounds,53.3280452768604,-6.30728442530439
2188,Crumlin College,53.3290169228319,-6.302921981248059
2189,Crumlin SC,53.3296953958841,-6.3000724082008395
2190,Dolphin's Barn,53.33277057197121,-6.292607716197799
2191,Islandbridge Gate,53.3480255718797,-6.31044326467111
2192,UCD Boat Club,53.347245622938004,-6.31567109288465
2193,Garda Rowing Club,53.3463845503896,-6.32345529052173
2194,Military Road,53.346193337248295,-6.32840430346689
2195,St Mary's Hospital,53.346744113807105,-6.337589992731941
2196,Chapelizod,53.34783462512279,-6.3416781514666996
2197,Lucan Road,53.348165553411796,-6.346742214870661
2198,Belgrove Park,53.350625141796996,-6.35106328860521
2200,Kylemore Road,53.3502827503688,-6.35295415067495
2243,Glenaulin,53.3519743826832,-6.35569799515705
2244,Belgrove Park,53.350884346707495,-6.3516090743614395
2245,Laurence Brook,53.349463204706204,-6.3482842112899505
2246,Chapelizod,53.34831130884089,-6.3436423537079
2247,St Mary's Hospital,53.3467528589784,-6.33628291602206
2248,Military Road,53.346320931867396,-6.32788863731599
2249,Garda Rowing Club,53.3465317047291,-6.32113644944895
2250,Salmon Pool,53.347438587053205,-6.31533304000409
2251,Islandbridge Gate,53.3481320367119,-6.3109797923089
2255,East Wall Road,53.3602300963748,-6.23826189020203
2256,West Road,53.35834894123239,-6.23565015244237
2257,Strangford Rd East,53.356382415654004,-6.23821028357827
2258,St Mary's Road,53.354653754297296,-6.23801117708436
2259,Church Road,53.3535381306986,-6.2367201906821
2260,Kilane Road,53.3517785077784,-6.235035259817621
2261,Church Court,53.352638546639795,-6.23241589368507
2262,Merchants Road,53.353522901541005,-6.226595602044769
2264,Alexandra Road,53.35110160455629,-6.22092777641819
2265,Branch Road North,53.3521964621183,-6.21780263684742
2269,Breakwater Rd South,53.3503077646681,-6.2033406278196
2270,Ferry Terminal,53.3457061206211,-6.195618655047539
2274,Alexandra Road,53.35018630442679,-6.20363114428484
2278,East Road,53.3541153587537,-6.23017647349123
2279,Caledon Road,53.3529413710537,-6.2316221987502
2280,Oxford Terrace,53.352311721584606,-6.23705623867301
2281,St Mary's Road North,53.3536641097573,-6.2367300125504395
2282,St Mary's Road,53.3548411662399,-6.238529251479781
2283,Portside Court,53.3583262112768,-6.235936552432951
2310,Werburgh Street,53.3424457018012,-6.26979842837399
2311,Kevin Street,53.338285282665304,-6.270492467038269
2312,St Luke's Avenue,53.338878854577395,-6.27548423467158
2313,Ardee Court,53.338742333057795,-6.278478181544241
2314,Cork Street,53.3383536836872,-6.280821492738639
2315,Brickfield Lane,53.3375364314403,-6.28523928429942
2317,St Mary's Road,53.3234185687146,-6.31887655923765
2318,Somerville Avenue,53.3219800054757,-6.31884304552818
2319,Crumlin Garda Stn,53.319564746107204,-6.31520038858857
2327,St Agnes Road,53.316854433306,-6.31676307428071
2328,St Agnes Road,53.31970478932839,-6.315570134108599
2329,Crumlin Village,53.3209014798796,-6.31693402537412
2330,Sommerville Avenue,53.322148043897705,-6.31928677990811
2331,St Mary's Road,53.32457177492579,-6.31779537774902
2332,Walkinstown Mall,53.3208746366549,-6.33101530032291
2333,Walkinstown Rdbt,53.3178417645959,-6.33266465395946
2378,Walkinstown Road,53.318147821185796,-6.33269775229581
2379,Marion Villas,53.3378334357811,-6.2846417070798495
2380,Ardee Street,53.3385060739033,-6.2801696235629905
2382,St Luke's Avenue,53.3388578109852,-6.278383425917389
2383,Patrick's Cathedral,53.33945806826329,-6.2726525825533
2385,Patrick Street,53.34231511913771,-6.27195136781822
2386,New Street South,53.3379073675264,-6.27232481699142
2387,Long Lane,53.3365844247214,-6.2728287910104505
2388,St. Kevin's Parade,53.33445880463879,-6.274386231296071
2389,St Clare's Avenue,53.3249290292039,-6.2791995212876905
2390,Mount Argus Park,53.3215286268286,-6.28398983470867
2391,Mount Argus Church,53.3201975133264,-6.2864299556653895
2392,Kimmage Grove,53.3187491224242,-6.2913513018359195
2393,Corrib Road,53.3152036113099,-6.29545530463233
2394,Poddle Park,53.31325905692929,-6.29775401743363
2396,Wainsfort,53.3088190678358,-6.302177579451129
2397,College Drive,53.3065891639911,-6.30085550798022
2398,Fortfield,53.3053439550586,-6.29988458197651
2409,Fortfield,53.305391221795304,-6.30004776457775
2416,Cromwellsfort Road,53.316339033531705,-6.31781900012653
2417,Cherry Grove,53.316635224113796,-6.322895542274691
2418,Bigger Road,53.31696995211679,-6.326889959308111
2419,Cherryfield Road,53.3170799226168,-6.33024779704373
2431,Cromwellsfort Road,53.3172032128787,-6.33070828115482
2432,Beechfield Avenue,53.317013466723004,-6.32550738003138
2433,Cherry Grove,53.316586230996,-6.32069108254299
2434,Kimmage Road West,53.3160265967796,-6.316060201414981
2435,Westbrook,53.3143144024753,-6.31129483322407
2436,Lorcan O'Toole Park,53.31370590701899,-6.3089475270515
2437,Brookfield,53.3126888171586,-6.30251926023373
2438,Kimmage Road Lower,53.3124895224779,-6.2992554242628005
2439,Ravensdale Park,53.313545870896704,-6.29769757870963
2440,Aideen Avenue,53.316400874741795,-6.294326915289731
2441,Kimmage Grove,53.3190611622816,-6.291173721530731
2442,Mount Argus Church,53.320452414387105,-6.28602946037103
2443,Brookfield,53.321892178089,-6.28364499642878
2444,Mount Argus Road,53.3242977354574,-6.279675293211691
2448,Cashel Road,53.31930924721729,-6.30414780696657
2450,Scoil Una Naofa,53.3202310999915,-6.307668789242481
2465,Armagh Road,53.3199884645823,-6.308939282641879
2466,Scoil Colm,53.32065423451671,-6.30645117635707
2467,Cashel Road,53.3192341833908,-6.303925628056719
2471,Larkfield Park,53.3186815798075,-6.2891475010922
2472,Harolds Cross NS,53.3176779065515,-6.285600295348691
2473,Clareville Road,53.317888729105704,-6.28338538434528
2474,Westfield Road,53.3187560070804,-6.28181952888636
2475,Kenilworth Park,53.318865886941204,-6.28008893179154
2476,Kenilworth Square N,53.319043808900204,-6.27746997537537
2477,Kenilworth Road,53.3198779433131,-6.27423910941842
2478,Grosvenor Road,53.320577591066,-6.26979766918624
2479,Grosvenor Road,53.3202340044305,-6.2702769046102205
2480,Kenilworth Road,53.3197445023017,-6.27433455790177
2481,Harolds Cross Road,53.318738071543706,-6.27808269931123
2482,Clareville Road,53.31892063108379,-6.281392626657139
2483,Larkfield Grove,53.317597986051105,-6.28441772237934
2484,Larkfield Park,53.318546835423696,-6.28915289128921
2485,Sundrive Road,53.3197915765421,-6.29133967375744
2486,Blarney Park,53.3210753974058,-6.29311972472242
2487,Stannaway Road,53.3218163769719,-6.29528179712857
2488,Kilfenora Road,53.320355428652896,-6.2987174578255996
2489,Clonfert Road,53.319415201978394,-6.300856321583249
2490,Captain's Road,53.3195465424543,-6.309467112598259
2491,Captain's Avenue,53.3180276552357,-6.30820627655293
2492,Stannaway Ave,53.3163063601097,-6.307884118914031
2493,Captain's Road,53.31833047843679,-6.308644598880349
2494,Stannaway Road,53.319696673756894,-6.300424843606581
2495,Ferns Road,53.321219910630205,-6.2969417818012
2496,Eamonn Ceannt Park,53.3219677485368,-6.29392474193039
2497,Sundrive Park,53.3203299516162,-6.2919035835723305
2498,Custom House Quay,53.3482435389402,-6.2501118775865
2499,Custom House Quay,53.3481278261786,-6.24712750979294
2500,Beckett Bridge,53.3477883380486,-6.24237993101825
2501,New Wapping Street,53.347375911187704,-6.2363586988084805
2508,East Wall Road,53.3528641016142,-6.225811747283889
2634,Clanbrassil Street,53.3328912744997,-6.2753804564168
2635,Lombard Street West,53.334250812364395,-6.27492017787533
2636,New Street South,53.3365804387911,-6.27317433216028
2637,Heuston Station,53.3458840623229,-6.2938560499996195
2638,St Johns Road West,53.345658753708,-6.29695909835277
2640,Inchicore Road,53.342044525614995,-6.308892572173789
2641,Camac Court,53.34196600729901,-6.31541363492024
2642,Grattan Crescent,53.341182136262894,-6.319739696434901
2643,Sarsfield Road,53.341532260217704,-6.3209874548759295
2644,Sarsfield Medical,53.3419905931301,-6.32738226562616
2645,Lally Road,53.3416965343725,-6.330772870229031
2646,Decies Road,53.3414944858325,-6.33367925990098
2647,Markievicz Park,53.3406470674039,-6.33800739822255
2648,Ramillies Road,53.339723021016205,-6.3426537010392305
2649,Thomond Road,53.33911057673,-6.3458010412898895
2650,Landen Road,53.337765557582294,-6.34667902336197
2652,Kylemore Avenue,53.33884594969211,-6.34810890913172
2653,Ballyfermot Crescent,53.3402347651841,-6.34844568463053
2654,Ballyfermot Road,53.3412987302067,-6.34868990718235
2655,Ballyfermot Parade,53.34213815921821,-6.35284757646732
2656,Ballyfermot,53.3426234944772,-6.35871610719473
2657,Clifden Road,53.341317060878,-6.3617548659033
2658,Oranmore Road,53.3391624351811,-6.36128182324465
2659,Raheen Park Estate,53.3370212365377,-6.3604779482620195
2660,Cherry Orchard Ave,53.335775038315894,-6.36070594347996
2661,Cherry Orchard Drive,53.3354860616891,-6.3651917772485005
2662,Cherry Orchard Way,53.3367935226576,-6.3700971770845305
2663,Croftwood Crescent,53.3369139961334,-6.37036287855571
2664,Cherry Orchard Drive,53.3356011990015,-6.36506724567254
2665,Croftwood Park,53.3358803626012,-6.360521710925171
2666,Clifden Drive,53.337600702340794,-6.360786086631401
2667,Clifden Road,53.34069762827,-6.36180864778953
2668,Ballyfermot Comm Cen,53.3429828349145,-6.36328297232268
2670,Spiddal Park,53.3403899393825,-6.367557189509309
2672,Cleggan Park,53.3433589409064,-6.3677741773581
2688,Cleggan Park,53.3434635062593,-6.36819070772056
2689,Blackditch Drive,53.343105999965495,-6.36374383192321
2696,Ballyfermot,53.342687616101706,-6.35880375521615
2697,Ballyfermot Parade,53.34227746609779,-6.35317261042737
2700,Kylemore Road,53.3412966526,-6.34853980731355
2701,Ballyfermot Crescent,53.3401698049081,-6.34829801891186
2702,Kylemore Avenue,53.33810329990501,-6.34770212371671
2703,Thomond Road,53.3382847108033,-6.346523787325809
2704,Decies Road,53.3392390804214,-6.34534554835472
2706,Garryowen Road,53.340033275471896,-6.341695560994589
2708,Landen Road,53.3418337142041,-6.33287006533028
2709,Longmeadows,53.3429927814368,-6.33348566501729
2710,Ballyfermot Road,53.3421150911736,-6.3395122079452895
2711,Markievicz Park,53.3417835326013,-6.34152251272882
2712,St Raphael's NS,53.3424598481867,-6.345566259838309
2713,St Raphael's NS,53.342480653470496,-6.347067297963901
2714,Markievicz Park,53.341905112315295,-6.341863213731611
2715,O'Hogan Road,53.342551710883704,-6.33859413280969
2716,Sarsfield Road,53.3428406256604,-6.33224505599931
2717,Seaview Avenue,53.357243311734706,-6.23746864709223
2718,St Mary's Avenue,53.34228226067229,-6.327671217200461
2719,Woodfield Place,53.3416457682995,-6.32011193943821
2720,Church Road,53.352055698770705,-6.2331160052948205
2721,Chapelizod Bypass,53.3432718551678,-6.310511084917571
2722,Chapelizod Bypass,53.3434371042603,-6.31139066326813
2726,Long Mile Road,53.32381438971311,-6.3304201795944905
2727,Drimnagh Castle,53.3237589731435,-6.332884293285531
2728,Walkinstown Park,53.321370233893205,-6.339477197893269
2729,Walkinstown Park Est,53.3191106120977,-6.33599249403808
2730,Walkinstown Comm Cen,53.3179354289307,-6.33422202603394
2774,Walkinstown Avenue,53.3182607318133,-6.33498987366934
2775,Ep Mooney Park,53.32277702581321,-6.34110386134688
2777,Walkinstown Park Est,53.319169952024495,-6.336380452226419
2778,Drimnagh Castle,53.3240244462339,-6.331943200273599
2795,Leeson Village,53.3285299793468,-6.24626462104787
2804,Strand Road,53.332331237708104,-6.2105077875188694
2809,Pearse Station,53.3430357114115,-6.249859576930269
2810,Merrion Sq West,53.34079491112921,-6.250897489194231
2811,Merrion Street,53.3393595021506,-6.25230781932256
2812,Charlemont Street,53.3319275451,-6.26223625672881
2813,Ranelagh Road,53.328711768324204,-6.2586735818742
2814,Ranelagh Luas,53.32603377234321,-6.255629951538791
2815,Milltown Road,53.315851003149994,-6.24526859253124
2816,Glenmalure Square,53.314265750710895,-6.24626416791295
2817,Alexandra College,53.3111523689252,-6.2478625546648
2898,Alexandra College,53.3111657582691,-6.24816215938318
2899,Garrynure,53.316370016608495,-6.24511221392701
2900,Ranelagh Luas,53.325936497499505,-6.25573900995997
2901,Ranelagh Road,53.32734309700971,-6.258504127533421
2902,Northbrook Road,53.328887478905294,-6.259011743571611
2903,Charlemont Street,53.3319676293818,-6.26251991082798
2906,Blackditch Road,53.3389141422916,-6.373350105181331
2907,Orchard Lawns,53.340255268087,-6.37217273806717
2908,Spiddal Park,53.339695145620006,-6.367358468337691
2909,Saint Ultans School,53.3374092423353,-6.373722729852389
2910,Spiddal Road,53.34106598939421,-6.37164626600922
2911,Cherry Orchard Park,53.3387440732575,-6.37340162942583
2912,Parliament Street,53.344630477463795,-6.2673669375728895
2914,Orwell Road,53.3109551920936,-6.27378867433998
2915,Zion Road,53.3094079625316,-6.27370103426306
2916,Bushy Park Road,53.307637291602,-6.274942974741419
2917,Meadowbank,53.3074870178511,-6.27760514891508
2918,Riversdale Avenue,53.307371417565896,-6.28080613465577
2957,McKee Avenue,53.3962510934869,-6.30254839676734
2958,McKee Avenue Est,53.3944049018217,-6.30102797293345
2985,Bushy Park Road,53.3072971097857,-6.28313508480275
2986,Meadowbank,53.3075980456754,-6.276580248281441
2988,Zion Road,53.3083806553168,-6.273517386557421
2989,Rostrevor Terrace,53.3080411944876,-6.27055979697922
2990,Orwell Gardens,53.3062138216965,-6.26727234478224
2999,Orwell Road,53.306034817870206,-6.267324611230809
3000,Rostrevor Terrace,53.3078619717015,-6.27059705445562
3001,Orwell Mews,53.3102889379646,-6.27371050695184
3002,Washerwomans Lane,53.3112213398196,-6.2741681328931
3355,Slane Road,53.3254823570809,-6.297717801738041
3356,Bangor Road,53.3248516316121,-6.30076039350032
3562,Glenmalure Square,53.3145538607559,-6.246297381847401
3952,Rutland Avenue,53.3316839465215,-6.29455799199736
4320,Heuston Station,53.3466406639927,-6.29208351412561
4322,Ashington Park,53.3734731712346,-6.3112546684699105
4363,Berryfield Road,53.381712237060206,-6.30344250600003
4364,Cappagh Hospital,53.3929113883209,-6.322529185436309
4369,Oakwood Road,53.397265200243204,-6.292357491393269
4371,Drumcliffe Drive,53.3659285745547,-6.292679464771121
4372,Fitzmaurice Road,53.38204848195371,-6.27610007085957
4376,Clancy Avenue,53.3924080528234,-6.2927323917350995
4377,Sycamore Road,53.3944892873151,-6.289942443662441
4380,Mabbot Street,53.350845886274996,-6.25350530531679
4382,Donnycarney Church,53.374964465749294,-6.21967769392797
4383,Coolock Library,53.3963183083127,-6.211132174111249
4384,Bayview Avenue,53.357680128024995,-6.2427090265571
4385,St Brendan's Church,53.3885313843221,-6.19896467953387
4386,Watermill Drive,53.37804914817921,-6.175161594504959
4388,Glin Road,53.3987311185581,-6.20600807642709
4399,Galtymore Park,53.332526779460494,-6.32102588043287
4400,Drimnagh CU,53.33437391802529,-6.31943674566524
4406,Carriglea Ind Est,53.328088816076296,-6.33851063578029
4407,Victoria Quay,53.3465291195087,-6.2861851185728
4408,Phoenix House,53.348333361254504,-6.301103309875599
4413,Heuston Station,53.346164394304296,-6.29271836681323
4415,Connolly Train Stn,53.350520792401106,-6.250334044096
4432,Griffith Downs,53.3772074698895,-6.248563718842
4434,Coombe Hospital,53.33586837795279,-6.289255478966349
4451,Strand Road,53.325934162257795,-6.2076828801963195
4455,Ailesbury Road,53.32065484495671,-6.21405869627381
4456,Whitefriars St,53.339914404497605,-6.26569595730069
4458,Military Cemetery,53.3604500535116,-6.3081186945333805
4466,Glenwood Road,53.3884194531001,-6.1897830469179
4468,West Road,53.35678419658029,-6.238028448356349
4469,East Road,53.3542069664855,-6.23029286013619
4472,St Anne's Drive,53.3763621447136,-6.17828497416807
4479,McKee Road,53.391304529952095,-6.2941297781210395
4481,Cabra PO,53.3646144110335,-6.286901792520959
4485,Naomh Fionnbarra GAA,53.3655416312196,-6.289509283896639
4494,Hawkins Street,53.3469617101298,-6.25710372145975
4495,Hawkins Street,53.3464120071589,-6.25700598616108
4498,Nephin Road,53.3668037534439,-6.30426041382602
4499,Dowth Avenue,53.3615685135468,-6.28322259481478
4500,Faussagh Road,53.3640474420477,-6.283723968886731
4501,Faussagh Road,53.3647523878198,-6.28712165248366
4502,Cabra PO,53.3633395576314,-6.282625479376461
4504,Royal Canal Avenue,53.3758232387124,-6.31727898906811
4509,Summerhill,53.3559717005551,-6.252454393150249
4513,Parnell Street,53.353937601123896,-6.25779555261286
4514,St James's Hospital,53.3399639859464,-6.29721608729655
4515,St James's Dental,53.340705164449304,-6.293732431434691
4516,St James's Hospital,53.3399500753875,-6.296871235498441
4518,Fairview Strand,53.3625824999162,-6.2411399295346905
4521,College Green,53.3443010558745,-6.26017105109329
4522,College Green,53.3442624890487,-6.260608179879499
4523,Kinvara Avenue,53.3691463221764,-6.317361855249651
4524,Ashington Avenue,53.37167609732099,-6.31574422816834
4525,Ashington Park,53.3734481351448,-6.311390923726409
4526,Ashington Avenue,53.3721188871373,-6.315275888596309
4528,Grove Park,53.328896078875296,-6.26453649020507
4530,Kildare Street,53.340322533493,-6.255467243215031
4538,Royal Canal Avenue,53.3757281132183,-6.316906984577759
4539,Glenties Park,53.3816733488144,-6.310839952756879
4542,Finglas Road,53.3866641413239,-6.29709664327809
4543,Wellmount Road,53.386249213274205,-6.2969929338737
4546,Plunkett Avenue,53.3984528103588,-6.3075887967478605
4548,Finglas Place,53.386235918282296,-6.29606135967967
4563,Clare Hall,53.401668971125204,-6.18097883463289
4583,Finglas West Church,53.3885290912024,-6.312598187635301
4592,Finglas Village,53.3896860703086,-6.29849455937189
4593,Temple View Rise,53.402504147676794,-6.1768072127282405
4594,Donaghmede Rdbt,53.399244681808206,-6.1635319436012805
4595,Templeview Avenue,53.4021399240889,-6.1729725878937005
4596,Temple View Rise,53.4023376157449,-6.1770850523742
4680,DCU,53.384966476356404,-6.2653384062863395
4683,Balbutcher Drive,53.404712712237796,-6.27959063627794
4692,Glin Road,53.400248644460106,-6.205312586710839
4693,Barryscourt Road,53.397474435997104,-6.208512158355559
4694,Coolock Drive,53.3934094424358,-6.20357043697057
4695,Greencastle Road,53.39298307682321,-6.197348226649099
4696,Adare Road,53.3943075517186,-6.20232964616665
4697,Bunratty Avenue,53.393089240714,-6.20379443601977
4698,Adare Avenue,53.3949426394074,-6.211099654304809
4699,Stardust Memorial Pk,53.397537764250096,-6.208539574160089
4700,DCC Sports Centre,53.4001332285194,-6.20540767893564
4720,Aston Quay,53.3466218968461,-6.26030184265729
4725,O'Connell St Upper,53.352115616113004,-6.26105453403103
4726,Parnell Square Nth,53.3542628405027,-6.264076827035559
4782,Gracefield Road,53.3825097656916,-6.2025711995350195
4788,Oakwood Road,53.3969347694167,-6.29250606231354
4793,Avila Park,53.39226726340279,-6.32082537531735
4804,Old Grange Abbey,53.39852468516621,-6.15996872729832
4806,Grange Abbey Drive,53.398374407504605,-6.15314770625991
4854,Ardee Street,53.3381491414764,-6.279102758846849
4855,O'Donovan Road,53.3346017677034,-6.279305648799389
4856,Donore Avenue,53.3319659178094,-6.28351081511284
4857,Rutledge Terrace,53.3341212960203,-6.28276357298051
4890,Sycamore Park,53.3951675776447,-6.29086258474813
4891,Grove Road,53.3931060244641,-6.28687033494162
4934,Offaly Road,53.3628575086005,-6.2828552282631
4935,St Attracta Road,53.36409572297179,-6.283331347470031
4936,Newgrange Road,53.3613520605835,-6.28317119636613
4937,McKee Avenue,53.3926718421315,-6.300510594398889
4938,Finglas Village,53.390861544148905,-6.29835745694139
4962,Mountjoy Square,53.3569939338404,-6.25843708602609
4985,Lanesborough Estate,53.402320989219,-6.29141806931841
5025,The Coombe,53.33976301566171,-6.27758105966666
5026,Armagh Road,53.3204303650202,-6.305244168817261
5060,Dundaniel Road,53.3971670149031,-6.224029240613571
5061,Kilbarron Drive,53.3956965209063,-6.2248724258515
5097,Kevin Street,53.338173303305396,-6.272689493526371
5099,Newmarket Street,53.3389824385794,-6.275810436751129
5134,Lally Road,53.3416887628656,-6.33021750067863
5140,Mayor Street Lower,53.351124392737596,-6.24553242137239
5144,Marian School,53.3727095347377,-6.30620502634173
5145,Rathbourne Avenue,53.377196797629395,-6.32675429973097
5147,Marian College,53.371823448544504,-6.305834408569161
5148,Saul Road,53.324945735973394,-6.30105690121982
5149,Errigal Road,53.3290866192038,-6.323743357260691
5154,Grange Abbey Drive,53.3982344046185,-6.156883321233059
5155,Grange Abbey Grove,53.3983316747233,-6.155615879125099
5157,Grange Abbey Grove,53.398169064006794,-6.15381829364774
5160,Grange Abbey Cresent,53.398495599076796,-6.1592481298857304
5174,Dundaniel Road,53.3957088554233,-6.225097474260041
5192,Fleet Street,53.3459563040653,-6.25780560959638
6004,Parnell Street,53.3529076424333,-6.2605115316502
6016,Balbutcher Lane,53.401115776859996,-6.26704264271178
6017,Galluan Road,53.40265434240621,-6.27335698367751
6020,Barnville Green,53.33806915595671,-6.37664091663013
6021,Cherry Orchard Ave,53.338201252727096,-6.37710142200168
6023,Cedar Brook Place,53.337299435808795,-6.37886256841241
6024,Cedar Brook Place,53.33737273010679,-6.37896490433468
6025,Barnville Walk,53.3359186522612,-6.3791101484339805
6026,Barnville Walk,53.3355919772503,-6.379542983085259
6027,Park West Station,53.334554621627206,-6.37860629728979
6028,Park West Station,53.3345956536871,-6.378980130724861
6029,Park West Hotel,53.3325082489397,-6.374855125510201
6030,Park West Hotel,53.3329468146005,-6.3760396540213
6042,Church Avenue,53.32014810730679,-6.264981579061849
6056,Sisters of Charity,53.3216863093805,-6.33185426991484
6057,Kilnamanagh Road,53.321461060276604,-6.33117254663599
6059,The Spire of Dublin,53.35022442827379,-6.260185175380469
6068,Ratoath Drive,53.390282379829294,-6.31709957382233
6070,O'Hogan Road,53.340885209689596,-6.33703699120921
6071,Parnell Street,53.353090589228,-6.26011349990353
6074,Earlsfort Terrace,53.335894932757796,-6.25755504246774
6078,Oscar Traynor Rd,53.397241781650706,-6.22422162082612
6079,Elmfield,53.399407980315,-6.1636301827989195
6080,Kildonan Road,53.3904626683414,-6.31140907952838
6094,Drimnagh PO,53.325830249256704,-6.3216341402826
6115,Belcamp Lane,53.4001273805798,-6.1842178541854205
6122,St Pappin's Road,53.3863727059716,-6.27430166369757
6125,Poppintree Parade,53.3998824003166,-6.276837922983191
6130,Ferrycarrig Park,53.400870379798604,-6.20063926502296
6140,Parkmore Estate,53.3235298985586,-6.34289108030767
6142,Walkinstown Avenue,53.323732530827996,-6.34324351223157
6182,Santry Cross,53.402250754217704,-6.265357188791441
6238,Ballymun,53.401192039063204,-6.26672371806463
6239,Dolmen Court,53.398042032260506,-6.27139328390733
6241,Crannogue Road,53.40181592283,-6.27940673236032
6251,Sheriff Street,53.3503940811876,-6.238667569588291
6252,North Wall Quay,53.3479648140172,-6.247044074718291
6253,Balbutcher Drive,53.4039584880706,-6.28151614111667
6273,Sycamore Road,53.395275371856,-6.29085826487389
6276,Seagrave Terrace,53.4060942638685,-6.291928650064301
6315,Hole in the Wall Rd,53.4014745100187,-6.16241320523739
6316,Park Avenue,53.4029153534792,-6.1573427328762405
6317,Clongriffin Station,53.40284222860289,-6.15145015819455
6318,Clongriffin,53.402313814747494,-6.15099179017818
6319,Grange Lodge Avenue,53.402662941089204,-6.153804184501599
6320,Hole in the Wall Rd,53.401596559086,-6.162167310136749
6361,Jamestown Road,53.4059486027501,-6.29179911788339
6362,Mayeston Lawn,53.4065006333519,-6.289550913798929
6363,Hampton Wood,53.4061452136716,-6.287955788020249
6367,Hampton Wood Road,53.4038763115708,-6.29144598182622
7009,Rathvilly Drive,53.3809280789927,-6.315980349094981
7010,Rathvilly Drive,53.381682780385894,-6.316596952915879
7012,Memorial Gardens,53.342954142234106,-6.3153746792035
7027,Glasnevin Park,53.3765942443059,-6.31204803252832
7028,Royal Canal Centre,53.3765158491821,-6.310953907282519
7043,St Mary's Road,53.32506078210421,-6.3186918941508
7044,Aulden Grange,53.39740936974629,-6.2324855678717395
7053,Nutley Lane,53.3183737112471,-6.213583567021701
7078,Park Gate Street,53.347910305250394,-6.292873903750861
7092,Dolmen Court,53.398187000209106,-6.27209420381953
7112,Astro Park,53.3975490018296,-6.22917140050016
7113,Northwood Avenue,53.4025410678893,-6.264924263946769
7130,Cromcastle Green,53.3930727351748,-6.22069621903409
7149,IKEA,53.4072962623839,-6.27799727211912
7153,Walkinstown Drive,53.3222436261031,-6.33507498194386
7154,Walkinstown Green,53.3208800215017,-6.333972232972781
7191,Balbutcher Way,53.40451121827889,-6.276214668665661
7192,Balbutcher Way,53.403822313411894,-6.27518970826941
7199,O'Tooles GAA,53.3966454003231,-6.1828021788561
7236,Grange Lodge Avenue,53.4028470810356,-6.154668538969441
7245,Clongriffin,53.4026465755828,-6.1521655249907505
7246,Park Avenue,53.4027610322157,-6.157244121893059
7220,Ballyknockan Road,53.388877660043605,-6.2753580188399605
7276,IKEA,53.4061059174926,-6.280842979689409
7277,St Margaret's Road,53.406000828597605,-6.28041102974887
7293,Westbourne Road,53.3061612403332,-6.283525796438901
7320,Griffith Court,53.3685007698416,-6.239588676393981
7333,Mespil Hotel,53.332999533328504,-6.24704223018875
7339,Burlington Road,53.332407936449606,-6.24654096192536
7340,Wilton Terrace,53.3342559531199,-6.246299977314661
7358,Castletimon Park,53.3954603017448,-6.229543840406199
7370,Burlington Road,53.331623066379606,-6.245732325832161
7385,Merrion Sq South,53.33929849396439,-6.25059831596535
7387,Merrion Sq South,53.3394724671638,-6.250816458038191
7390,Merrion Sq South,53.3395130189085,-6.251130167928831
7391,Merrion Sq South,53.33909074784229,-6.24991601709792
7392,Aston Quay,53.3464604153825,-6.260939259225401
7396,Crescent Park,53.3761089442938,-6.321611489772559
7397,Guild Street,53.3476940317385,-6.2433000614634295
7398,Convention Centre,53.3474994233065,-6.2398533634062305
7399,The Point,53.3484935313095,-6.22686447149742
7412,The Coombe,53.3398919247649,-6.278416853917871
7413,Dean Street,53.33959770059871,-6.275470244223009
7414,Windmill Road,53.3251590796589,-6.31101668308184
7423,Ballygall Parade,53.3856751986941,-6.28828123187409
7424,Ballygall Place,53.38801173125239,-6.29202130024751
7425,Glasanaon Road,53.3888786457005,-6.292933788469861
7426,Ballygall Parade,53.385456377950604,-6.28806450586451
7427,Ballygall Place,53.3877967874413,-6.2920750095152105
7428,Ballygall Road Junc,53.389089764119994,-6.29324107427688
7430,Griffith Avenue,53.379867681014204,-6.2800663646627495
7431,Griffith Ave Ext,53.3797291453918,-6.27918507842538
7435,Memorial Gardens,53.3431789302767,-6.31538083570425
7438,Herberton Drive,53.3319362078043,-6.29774608887869
7439,Herberton Road,53.3323622619428,-6.29799939234776
7453,Arran Quay,53.3463358924194,-6.27838250402172
7454,New Ireland Road,53.33500797425489,-6.29885506063358
7455,Herberton Road,53.33557454394,-6.298877559165269
7458,Collins Drive,53.3900665526349,-6.29052570608456
7469,Baymount Park,53.367776196242296,-6.17402284952641
7471,Tolka Valley Green,53.37925690878139,-6.293243555450459
7507,Saint Ultans School,53.3374114730701,-6.37322709729874
7513,Phoenix Park,53.3508964564954,-6.296795356217
7514,Bargy Road,53.3539918288459,-6.2303318195970405
7516,Belmayne,53.40207591374661,-6.171727025254801
7555,Mountjoy Square,53.357170301515396,-6.25820453691996
7564,Poolbeg St,53.34683413747021,-6.2545254567125
7568,Eden Quay,53.348256082692004,-6.25587930321622
7569,Gardiner Street,53.3504505082384,-6.25596996553252
7571,DCU Helix,53.3867756476317,-6.2587249584886395
7577,Grantham Street,53.3338326357244,-6.2652970617047
7578,Fade Street,53.342460100726,-6.26460140803191
7579,Redmond's Hill,53.3382457820909,-6.26591384363467
7581,Dame Street,53.34415856149771,-6.26334590761396
7582,Dame Street,53.344206378155,-6.261691848854509
7585,National Gallery,53.342037080113,-6.253474879587739
7586,National Gallery,53.3419704651789,-6.253222288424849
7587,Science Gallery,53.344457928225495,-6.251228159789809
7588,Pearse Street,53.344996604494106,-6.25425507651359
7591,Abbey Street,53.348890153038795,-6.25682977423594
7601,Bond Drive,53.3528378344718,-6.2138099693153706
7615,Granby Place,53.35250813882811,-6.26393782900767
7622,Bachelors Walk,53.3469020724158,-6.2622580775240895
7623,Br an Phoirt Thoir,53.3469141110555,-6.22945342719193
7661,Barry Avenue,53.3954073829817,-6.31086745348341
7662,Townsend Street,53.3465116947459,-6.257061999444231
7665,Poolbeg Street,53.34682214393371,-6.25677897149017
7671,Gloucester Lane,53.353782113034605,-6.2526942059461
7672,Broombridge Station,53.37242561922629,-6.29888210640204
7686,Broombridge,53.3724647622262,-6.2991059827856795
7697,IKEA,53.40637876545279,-6.27607899033759
7698,IKEA,53.4063848668136,-6.2746347975114
7701,Rathvilly Road,53.3836896715855,-6.31614194737193
7702,River Road,53.3772555322715,-6.3098724796235
7703,River Road,53.377331911180896,-6.309553808337129
7602,DCU St Patrick’s,53.37155351447829,-6.2534396446411
7603,St Patrick's College,53.371576725454,-6.253183203888299
100,Wellington Cottages,53.3030739016846,-6.322376751127441
946,Woodbrook Park,53.2932464974253,-6.3100408739183305
1090,Kimmage Road West,53.312103887767805,-6.3005764406037805
1091,Whitehall Road,53.3124406081649,-6.3052905773807595
1092,Whitehall Gardens,53.3107438359032,-6.309229696890321
1093,Priory Walk,53.3099785512697,-6.3116760846972095
1094,Kimmage Manor Way,53.3090595750966,-6.314698697188
1095,Wellington Road,53.306914174216004,-6.31999028759745
1096,Wellington Road,53.3060442732979,-6.3214049672437795
1097,Wellington Cottages,53.3030617539779,-6.322152157663339
1099,Osprey Road,53.3012723826344,-6.32337762226139
1100,Osprey Road,53.301203047258504,-6.32356038654701
1101,Limekiln Road,53.3047228781746,-6.32267222775892
1102,Limekiln Park,53.3043892748439,-6.32643658129866
1103,Tymon Park,53.3045288815959,-6.32934212005388
1104,Limekiln Avenue,53.3050190341177,-6.33353947583501
1105,Greenhills College,53.3071131900264,-6.334178203285821
1107,Limekiln Road,53.304432548008606,-6.332091816080441
1108,St Peter's School,53.30451900549279,-6.32863726392719
1109,Mountdown Park,53.3044518784015,-6.32577390731128
1110,Wellington Lane,53.3047308919481,-6.323242112382751
1111,Limekiln Drive,53.3052814320169,-6.3221251427955805
1112,Whitehall Road,53.307658717099294,-6.318610488703259
1113,Glendale Park,53.3090231356644,-6.315300402744679
1114,Priory Walk,53.310343734944404,-6.31080626120503
1115,Whitehall Gardens,53.311598433177004,-6.30737999230587
1125,Bushy Park House,53.3010853561275,-6.29811824954017
1127,Riverside Cottages,53.298456263838204,-6.302843742982019
1130,Templeogue Bridge,53.2963417323261,-6.308373430802559
1135,Marian Road,53.2934427093949,-6.29729701192561
1137,Marian Crescent,53.2943662491471,-6.29714026303993
1140,Woodbrook Park,53.293284612524005,-6.30955932936317
1141,Knocklyon Road,53.2899168920596,-6.311027309801741
1142,Knockcullen Rise,53.2876048362304,-6.31087852585013
1143,Knockaire,53.2834158744803,-6.31338341384037
1144,Dargle Wood,53.282325278299396,-6.3150760795714005
1145,Scholarstown Road,53.2818119177246,-6.31818570238762
1150,Scholarstown Road,53.281876702537005,-6.3183181332825304
1151,Knocklyon Road,53.282529560252705,-6.31490307006027
1152,Knockaire,53.2835692237013,-6.313422367576469
1153,Knockcullen Rise,53.287175558211295,-6.31103045259034
1154,Coolamber Park,53.28899226925321,-6.31110878429399
1155,Ashfield College,53.2967734384622,-6.30712616623667
1157,Riverside Cottages,53.2987448074119,-6.30227718360345
1158,Springfield Road,53.3007025116395,-6.29900369879154
1301,Dodder Park Road,53.30389580938311,-6.283496631139929
1302,Crannagh Road,53.301662722028205,-6.28384127490986
1303,Rathfarnham Castle,53.299342312629,-6.2837392780822405
1304,Butterfield Avenue,53.298176547470796,-6.28455117924164
1305,Willbrook Road,53.296169599544,-6.283746477944139
1320,Loretto Terrace,53.294465420945606,-6.28087446913157
1321,Aranleigh,53.292461972041906,-6.28218500902616
1322,Tara Hill Road,53.2907131008228,-6.28245018883564
1323,Barton Drive,53.2890805751895,-6.28268067902166
1324,Barton Road West,53.2872489118846,-6.28281414193194
1325,Sarah Curran Avenue,53.2865329953298,-6.282407884178459
1326,St Enda's Drive,53.288805125516994,-6.28290172383646
1327,Tara Hill Road,53.291190709771605,-6.282536031390981
1328,Loretto Convent,53.2922038416742,-6.28236037733465
1329,St Mary's School,53.29496692287729,-6.28199447212762
1330,Willbrook Road,53.29619101795011,-6.28398565628823
1331,Rathfarnham Road,53.2985191944297,-6.28462746436192
1332,Crannagh Road,53.3007580323743,-6.28405760131194
1333,Brookvale Road,53.303103879635295,-6.2840535638373805
1334,Dodder Bridge,53.30484800249229,-6.28345843394713
1957,Robinhood Road,53.3254115709781,-6.347006627294411
1958,Long Mile Road,53.324563419819405,-6.349366296438559
1959,Club Road,53.3222337514405,-6.35574596021052
1960,Red Cow Hotel,53.320063168751204,-6.3619537116853895
1963,Woodford Hill,53.32003814282229,-6.378541272957571
1964,Woodford Walk,53.3232100854933,-6.3784810474854
1965,Woodford Grove,53.32386830624971,-6.37929674981493
1966,Woodford Hill,53.3205430553674,-6.37799675639534
1968,Monastery Road,53.319513725769795,-6.382283708320481
1969,Monastery Walk,53.319810475417796,-6.384283876117981
1970,Floraville Avenue,53.3207424759676,-6.389397339284461
1971,Laurel Park,53.32112631085,-6.39119919520543
1972,Monastery Road,53.3210323032383,-6.39022702930033
1973,Monastery Rise,53.3200719182739,-6.3856699736691604
1974,Monastery Heath,53.319589488877895,-6.381905584596111
1975,Mount Talbot,53.317932503053505,-6.372422074093991
1977,Red Cow Hotel,53.3205468241669,-6.36183011161259
1978,Robin Hood Ind Est,53.322122153680105,-6.3574315124014005
1980,J F Kennedy Drive,53.324925863046296,-6.34957748889716
2109,Knockmeenagh Lane,53.313371812453205,-6.38736361235708
2114,Ninth Lock Road,53.3242145514861,-6.39560159465003
2115,Oakfield,53.3256298971286,-6.3952482398373
2118,Neilstown Road,53.3356239897063,-6.40056407537987
2119,St Peter School,53.3370479288624,-6.40018042839265
2120,Collinstown College,53.341163270442706,-6.39942565437454
2121,Rowlagh,53.343875578651705,-6.39860315587688
2123,St Mark's Avenue,53.3471760338805,-6.39807391277742
2124,Neilstown Road,53.346958416408604,-6.397931873072491
2125,Harelawn Green,53.345586776245206,-6.398193575261019
2126,Rowlagh,53.3439354401534,-6.39837562988942
2127,Collinstown College,53.3415714730725,-6.39903491521607
2128,Neilstown Avenue,53.339666662411496,-6.39975201801213
2129,Moorefield Drive,53.335728370074904,-6.400304898354809
2133,Dunawley,53.32480454397199,-6.4034007678997895
2134,Lealand Drive,53.32162695435329,-6.4124659469647804
2135,Mill Court Avenue,53.32130672707851,-6.41474447344288
2136,Bawnogue Church,53.324926498041805,-6.412538605840349
2137,Lindisfarne,53.3263979956783,-6.4123488601554595
2138,Lindisfarne Drive,53.3285582266326,-6.41393512993322
2139,Melrose,53.328717266610795,-6.41711208196643
2140,Deansrath Grove,53.3295498464203,-6.4222910230828605
2141,St Cuthberts Road,53.3284075708911,-6.42426989449739
2142,Kilmahuddrick Estate,53.327201925286204,-6.42485479176684
2143,Grange View,53.3250593390441,-6.4259545455500495
2145,St Ronan's,53.3231270229853,-6.42459958300617
2146,Old Castle Drive,53.324082308119294,-6.4261556401621
2147,Kilmahuddrick Avenue,53.326846743382,-6.4251831448195
2148,Kilcronan Estate,53.3287932689761,-6.42421063893747
2149,Deansrath Grove,53.329568261343496,-6.42164475275836
2150,Melrose,53.328730056069794,-6.4167212586419495
2151,Lindisfarne Drive,53.32861452169271,-6.414113202572531
2152,Bawnogue Road,53.3275109454562,-6.41155688142711
2153,Newlife Church,53.324987385704404,-6.412386223884151
2154,Lealand Drive,53.3234234312592,-6.41035767609538
2156,New Nangor Road,53.3254023616498,-6.40240264527716
2158,Oakfield,53.3254849510884,-6.39516360556821
2159,Clondalkin Garda Stn,53.3232207170879,-6.39388252941307
2160,Convent Road,53.3195731447018,-6.39466495688777
2161,Clondalkin Church,53.318372594256296,-6.394950176894031
2162,St John's Road,53.317286380526504,-6.403756470643589
2163,St John's Close,53.31702282514011,-6.406227842911901
2164,Westbourne,53.3207026328467,-6.42002058801357
2165,Rath Gael Estate,53.320210997801894,-6.424301719235751
2166,Castlegrange,53.319964192796796,-6.42671246968373
2167,Grange Castle GC,53.31822140101911,-6.4356623410922005
2168,St John's Lawn,53.313801443758,-6.40864412595925
2169,St John's Road,53.31735617811629,-6.405615042054889
2170,Corkagh View,53.317362212160596,-6.403378403325959
2172,Moyle Park College,53.3197268726684,-6.394734238230639
2173,Laurel Park,53.3185518287611,-6.392241663388861
