[{"stop_lat":53.3522443611,"stop_lon":-6.2637232189,"address":"Parnell Square West","id":"stop 2"},{"stop_lat":53.3523085514,"stop_lon":-6.2638107422,"address":"Parnell Square West","id":"stop 3"},{"stop_lat":53.3525745132,"stop_lon":-6.264175486,"address":"Parnell Square West","id":"stop 4"},{"stop_lat":53.3527493357,"stop_lon":-6.264453804,"address":"Parnell Square West","id":"stop 6"},{"stop_lat":53.3528409106,"stop_lon":-6.2645702612,"address":"Parnell Square West","id":"stop 7"},{"stop_lat":53.3532722715,"stop_lon":-6.2651836766,"address":"Parnell Square West","id":"stop 8"},{"stop_lat":53.3533921036,"stop_lon":-6.2653891239,"address":"Parnell Square West","id":"stop 10"},{"stop_lat":53.3568152335,"stop_lon":-6.2646791951,"address":"St Joseph's Parade","id":"stop 11"},{"stop_lat":53.3571075162,"stop_lon":-6.2643818673,"address":"Upper Dorset Street","id":"stop 12"},{"stop_lat":53.3585312379,"stop_lon":-6.2627765057,"address":"Dorset Street Lower","id":"stop 14"},{"stop_lat":53.3602667076,"stop_lon":-6.2609780427,"address":"Innisfallen Parade","id":"stop 15"},{"stop_lat":53.3663915571,"stop_lon":-6.3056141835,"address":"Nephin Road Park","id":"stop 16"},{"stop_lat":53.3630783244,"stop_lon":-6.2583992885,"address":"Drumcondra Rail Stn","id":"stop 17"},{"stop_lat":53.3658559259,"stop_lon":-6.2559568207,"address":"Dargle Road","id":"stop 18"},{"stop_lat":53.3672348759,"stop_lon":-6.255599941,"address":"Botanic Avenue","id":"stop 19"},{"stop_lat":53.3701011993,"stop_lon":-6.254310599,"address":"DCU St Patrick's","id":"stop 21"},{"stop_lat":53.3735036097,"stop_lon":-6.2528037527,"address":"Home Farm Road","id":"stop 22"},{"stop_lat":53.3742282801,"stop_lon":-6.2562610042,"address":"Ferguson Road","id":"stop 23"},{"stop_lat":53.3751331589,"stop_lon":-6.2603723481,"address":"Walsh Road","id":"stop 24"},{"stop_lat":53.3758994661,"stop_lon":-6.2636177364,"address":"Rathlin Road","id":"stop 25"},{"stop_lat":53.37943896,"stop_lon":-6.2665852613,"address":"Ballymun Road","id":"stop 27"},{"stop_lat":53.3815786376,"stop_lon":-6.2660022708,"address":"Hampstead Avenue","id":"stop 28"},{"stop_lat":53.3834882529,"stop_lon":-6.2656691013,"address":"Albert College Park","id":"stop 29"},{"stop_lat":53.3703319002,"stop_lon":-6.3046011692,"address":"Ventry Park","id":"stop 30"},{"stop_lat":53.3860332259,"stop_lon":-6.2688580773,"address":"St Pappin's Road","id":"stop 31"},{"stop_lat":53.3861955681,"stop_lon":-6.271377201,"address":"Stormanstown Road","id":"stop 32"},{"stop_lat":53.3887179243,"stop_lon":-6.2717711412,"address":"Glasnevin Drive","id":"stop 33"},{"stop_lat":53.3862067871,"stop_lon":-6.2709106925,"address":"Dean Swift Road","id":"stop 35"},{"stop_lat":53.3861268504,"stop_lon":-6.2678770698,"address":"Maolbuille Road","id":"stop 36"},{"stop_lat":53.3853464012,"stop_lon":-6.2648869813,"address":"DCU Ballymun Road","id":"stop 37"},{"stop_lat":53.3822365942,"stop_lon":-6.2655095212,"address":"Hampstead Avenue","id":"stop 38"},{"stop_lat":53.3804141869,"stop_lon":-6.2656587591,"address":"The Rise","id":"stop 39"},{"stop_lat":53.3766607655,"stop_lon":-6.2646689685,"address":"Stella Avenue","id":"stop 40"},{"stop_lat":53.3755592683,"stop_lon":-6.2618580062,"address":"Home Farm Road","id":"stop 41"},{"stop_lat":53.3746502735,"stop_lon":-6.2574611897,"address":"Corpus Christi NS","id":"stop 42"},{"stop_lat":53.3738612202,"stop_lon":-6.2539013104,"address":"Achill Road","id":"stop 43"},{"stop_lat":53.3730174091,"stop_lon":-6.2521323032,"address":"Skylon Hotel","id":"stop 44"},{"stop_lat":53.3699364344,"stop_lon":-6.2541069408,"address":"DCU St Patrick's","id":"stop 45"},{"stop_lat":53.3671310162,"stop_lon":-6.2552585566,"address":"Botanic Avenue","id":"stop 46"},{"stop_lat":53.363916119,"stop_lon":-6.2572982565,"address":"Drumcondra Rail Stn","id":"stop 47"},{"stop_lat":53.3622573901,"stop_lon":-6.2588084123,"address":"Fitzroy Avenue","id":"stop 48"},{"stop_lat":53.3600042379,"stop_lon":-6.2608535083,"address":"Dorset Street Lower","id":"stop 49"},{"stop_lat":53.3578104088,"stop_lon":-6.2632715725,"address":"Temple Street","id":"stop 51"},{"stop_lat":53.3566607792,"stop_lon":-6.264565282,"address":"Dorset Street Upper","id":"stop 52"},{"stop_lat":53.3600144884,"stop_lon":-6.2627912891,"address":"North Circular Road","id":"stop 53"},{"stop_lat":53.3602216081,"stop_lon":-6.265908034,"address":"Mater Hospital","id":"stop 54"},{"stop_lat":53.3604116029,"stop_lon":-6.2684695798,"address":"Mountjoy","id":"stop 55"},{"stop_lat":53.3607597246,"stop_lon":-6.2763736549,"address":"Dalymount","id":"stop 56"},{"stop_lat":53.3608162243,"stop_lon":-6.2765516748,"address":"Dalymount","id":"stop 57"},{"stop_lat":53.3609462459,"stop_lon":-6.2812042025,"address":"Churchview Home","id":"stop 58"},{"stop_lat":53.3610180102,"stop_lon":-6.2849425631,"address":"Annamoe Terrace","id":"stop 59"},{"stop_lat":53.3612792197,"stop_lon":-6.2893645001,"address":"Quarry Road","id":"stop 60"},{"stop_lat":53.3667924373,"stop_lon":-6.2927501081,"address":"Faussaugh Avenue","id":"stop 63"},{"stop_lat":53.3670885821,"stop_lon":-6.2952327822,"address":"Faussaugh Ave Church","id":"stop 64"},{"stop_lat":53.3672546442,"stop_lon":-6.2980512764,"address":"Dingle Road","id":"stop 65"},{"stop_lat":53.3672749884,"stop_lon":-6.3007403455,"address":"Broombridge Road","id":"stop 66"},{"stop_lat":53.369077508,"stop_lon":-6.3042452347,"address":"Ventry Drive","id":"stop 68"},{"stop_lat":53.3713925641,"stop_lon":-6.3033417169,"address":"Carnlough Road","id":"stop 69"},{"stop_lat":53.3702576893,"stop_lon":-6.3044388053,"address":"Ventry Park","id":"stop 71"},{"stop_lat":53.368969926,"stop_lon":-6.304264536,"address":"Ventry Drive","id":"stop 72"},{"stop_lat":53.3673915527,"stop_lon":-6.3007206787,"address":"Faussagh Avenue","id":"stop 73"},{"stop_lat":53.3672002386,"stop_lon":-6.295498814,"address":"Faussaugh Ave Church","id":"stop 74"},{"stop_lat":53.3665472299,"stop_lon":-6.2913173194,"address":"Fionnbarra GAA","id":"stop 75"},{"stop_lat":53.3613091819,"stop_lon":-6.2895736523,"address":"Quarry Road","id":"stop 77"},{"stop_lat":53.3611492152,"stop_lon":-6.2840658353,"address":"Annamoe Terrace","id":"stop 78"},{"stop_lat":53.361021251,"stop_lon":-6.2807955056,"address":"Churchview Home","id":"stop 79"},{"stop_lat":53.3608629633,"stop_lon":-6.2760539615,"address":"Phibsborough PO","id":"stop 80"},{"stop_lat":53.3608757479,"stop_lon":-6.2719666269,"address":"Phibsborough","id":"stop 81"},{"stop_lat":53.3607977959,"stop_lon":-6.2715490802,"address":"Phibsborough","id":"stop 82"},{"stop_lat":53.3602792498,"stop_lon":-6.2655450962,"address":"Mater Hospital","id":"stop 83"},{"stop_lat":53.3601625616,"stop_lon":-6.2637017806,"address":"Leo Street","id":"stop 84"},{"stop_lat":53.3739579526,"stop_lon":-6.2519134297,"address":"Wellpark Avenue","id":"stop 85"},{"stop_lat":53.3760502205,"stop_lon":-6.2511663907,"address":"Home Farm FC","id":"stop 86"},{"stop_lat":53.3767517256,"stop_lon":-6.2548802899,"address":"Clare Road","id":"stop 87"},{"stop_lat":53.3772872553,"stop_lon":-6.2576992286,"address":"Walnut Rise","id":"stop 88"},{"stop_lat":53.3863855317,"stop_lon":-6.2652656728,"address":"Albert College Court","id":"stop 90"},{"stop_lat":53.3884278897,"stop_lon":-6.2654081421,"address":"Ballymun Road NS","id":"stop 91"},{"stop_lat":53.3898373341,"stop_lon":-6.2646742404,"address":"Ballymun Library","id":"stop 92"},{"stop_lat":53.3923014678,"stop_lon":-6.2641529756,"address":"Gateway Avenue","id":"stop 93"},{"stop_lat":53.3960347624,"stop_lon":-6.26437696,"address":"Civic Centre","id":"stop 94"},{"stop_lat":53.3977730702,"stop_lon":-6.267719857,"address":"Balbutcher Lane","id":"stop 102"},{"stop_lat":53.3997562075,"stop_lon":-6.276812945,"address":"Poppintree Parade","id":"stop 104"},{"stop_lat":53.4029363967,"stop_lon":-6.2816926965,"address":"Belclare Park","id":"stop 105"},{"stop_lat":53.4020356254,"stop_lon":-6.2796836182,"address":"Crannogue Road","id":"stop 107"},{"stop_lat":53.397938641,"stop_lon":-6.2686003815,"address":"\u00c1rd Na Meala","id":"stop 110"},{"stop_lat":53.3961544015,"stop_lon":-6.2639510403,"address":"Civic Centre","id":"stop 112"},{"stop_lat":53.3922679629,"stop_lon":-6.2637032546,"address":"Trinity Comp School","id":"stop 113"},{"stop_lat":53.3913333221,"stop_lon":-6.2637112293,"address":"Ballymun Road","id":"stop 114"},{"stop_lat":53.387964092,"stop_lon":-6.2650361005,"address":"Ballymun Road Church","id":"stop 115"},{"stop_lat":53.3776934606,"stop_lon":-6.2596667399,"address":"Griffith Lawns","id":"stop 116"},{"stop_lat":53.3773659067,"stop_lon":-6.2575457085,"address":"Walnut Rise","id":"stop 117"},{"stop_lat":53.3766430017,"stop_lon":-6.2535920986,"address":"Clare Road","id":"stop 118"},{"stop_lat":53.3751904807,"stop_lon":-6.2507657453,"address":"The Village","id":"stop 119"},{"stop_lat":53.3990954667,"stop_lon":-6.2640869606,"address":"Nursing Home","id":"stop 126"},{"stop_lat":53.3991075305,"stop_lon":-6.2636804282,"address":"Nursing Home","id":"stop 127"},{"stop_lat":53.3898903154,"stop_lon":-6.2714229361,"address":"Glasnevin Drive","id":"stop 129"},{"stop_lat":53.3900920128,"stop_lon":-6.2741812694,"address":"Glasnevin Park","id":"stop 130"},{"stop_lat":53.3903858903,"stop_lon":-6.278349237,"address":"Willow Park Road","id":"stop 131"},{"stop_lat":53.3907969276,"stop_lon":-6.2863015095,"address":"Grove Park Road","id":"stop 133"},{"stop_lat":53.3930945913,"stop_lon":-6.2860738654,"address":"Sycamore Road","id":"stop 134"},{"stop_lat":53.3943802014,"stop_lon":-6.2898565965,"address":"McKee Road","id":"stop 136"},{"stop_lat":53.3923167196,"stop_lon":-6.2926307948,"address":"Clancy Avenue","id":"stop 137"},{"stop_lat":53.3899950093,"stop_lon":-6.2918065726,"address":"St Canice's BNS","id":"stop 138"},{"stop_lat":53.3904450851,"stop_lon":-6.2780912447,"address":"Willow Park Road","id":"stop 141"},{"stop_lat":53.3901982853,"stop_lon":-6.274071722,"address":"Glasnevin Park","id":"stop 142"},{"stop_lat":53.3898767084,"stop_lon":-6.26924337,"address":"Willow Park Avenue","id":"stop 143"},{"stop_lat":53.3750401276,"stop_lon":-6.2650955857,"address":"Na Fianna GAA Club","id":"stop 146"},{"stop_lat":53.3724802262,"stop_lon":-6.2658308621,"address":"Tolka Bridge","id":"stop 147"},{"stop_lat":53.3706701663,"stop_lon":-6.2680685071,"address":"Mobhi Road","id":"stop 148"},{"stop_lat":53.3731385873,"stop_lon":-6.2659844661,"address":"Tolka Bridge","id":"stop 149"},{"stop_lat":53.3756588462,"stop_lon":-6.264995283,"address":"Na Fianna GAA Club","id":"stop 150"},{"stop_lat":53.37195526,"stop_lon":-6.2692938277,"address":"Botanic Gardens","id":"stop 151"},{"stop_lat":53.3756885056,"stop_lon":-6.2701344395,"address":"Met Eireann","id":"stop 153"},{"stop_lat":53.3772589963,"stop_lon":-6.2755570372,"address":"St Brigid's School","id":"stop 154"},{"stop_lat":53.3778742493,"stop_lon":-6.2795755272,"address":"Old Finglas Road","id":"stop 155"},{"stop_lat":53.3786233901,"stop_lon":-6.2816647391,"address":"Tolka Estate","id":"stop 156"},{"stop_lat":53.3804116224,"stop_lon":-6.2816378252,"address":"Glasilawn Road","id":"stop 157"},{"stop_lat":53.3814819498,"stop_lon":-6.2835639541,"address":"Griffith Road","id":"stop 158"},{"stop_lat":53.3827837192,"stop_lon":-6.2828351125,"address":"Griffith Parade","id":"stop 159"},{"stop_lat":53.3884303639,"stop_lon":-6.2804879229,"address":"Beneavin Road","id":"stop 164"},{"stop_lat":53.3890348747,"stop_lon":-6.2837712488,"address":"Beneavin Park","id":"stop 165"},{"stop_lat":53.3895835974,"stop_lon":-6.2863051486,"address":"Beneavin School","id":"stop 166"},{"stop_lat":53.3901866021,"stop_lon":-6.2869875853,"address":"Beneavin Road","id":"stop 167"},{"stop_lat":53.3892599669,"stop_lon":-6.2844237347,"address":"Beneavin Park","id":"stop 168"},{"stop_lat":53.3884339347,"stop_lon":-6.28011191,"address":"Beneavin Court","id":"stop 169"},{"stop_lat":53.3821216123,"stop_lon":-6.2805467484,"address":"Glasnamana Place","id":"stop 173"},{"stop_lat":53.3806803549,"stop_lon":-6.2809505621,"address":"Tolka Estate","id":"stop 174"},{"stop_lat":53.3784242537,"stop_lon":-6.281567539,"address":"Northland Grove","id":"stop 175"},{"stop_lat":53.378032042,"stop_lon":-6.2792986061,"address":"Old Finglas Road","id":"stop 176"},{"stop_lat":53.3804683766,"stop_lon":-6.2762240352,"address":"Ballygall Rd East","id":"stop 177"},{"stop_lat":53.3818902632,"stop_lon":-6.2763469826,"address":"Fitzmaurice Road","id":"stop 178"},{"stop_lat":53.3803034313,"stop_lon":-6.2760052198,"address":"Ballygall Rd East","id":"stop 179"},{"stop_lat":53.3771498434,"stop_lon":-6.2742237069,"address":"Cremore Avenue","id":"stop 181"},{"stop_lat":53.3756567668,"stop_lon":-6.2698050597,"address":"Met Eireann","id":"stop 182"},{"stop_lat":53.3723159291,"stop_lon":-6.2687531849,"address":"Botanic Gardens","id":"stop 183"},{"stop_lat":53.369703682,"stop_lon":-6.2689793545,"address":"Botanic Road","id":"stop 184"},{"stop_lat":53.368100936,"stop_lon":-6.2700211393,"address":"St Teresa's Place","id":"stop 185"},{"stop_lat":53.3653553426,"stop_lon":-6.2715899776,"address":"Lindsay Grove","id":"stop 186"},{"stop_lat":53.3627342524,"stop_lon":-6.2724473653,"address":"Phibsborough Road","id":"stop 187"},{"stop_lat":53.3601206878,"stop_lon":-6.2725831492,"address":"North Circular Road","id":"stop 188"},{"stop_lat":53.3571674395,"stop_lon":-6.2734688156,"address":"Fire Station","id":"stop 189"},{"stop_lat":53.3551257304,"stop_lon":-6.273371074,"address":"Broadstone","id":"stop 190"},{"stop_lat":53.3550179486,"stop_lon":-6.2690337805,"address":"Western Way","id":"stop 191"},{"stop_lat":53.3563972112,"stop_lon":-6.2680764696,"address":"Mountjoy Street","id":"stop 192"},{"stop_lat":53.391196306,"stop_lon":-6.2941040349,"address":"Finglas Park","id":"stop 193"},{"stop_lat":53.3550406496,"stop_lon":-6.269979311,"address":"Western Way","id":"stop 194"},{"stop_lat":53.3550117779,"stop_lon":-6.2735709797,"address":"Broadstone","id":"stop 195"},{"stop_lat":53.3568838993,"stop_lon":-6.2737507041,"address":"Fire Station","id":"stop 196"},{"stop_lat":53.3589526316,"stop_lon":-6.2732313735,"address":"Monck Place","id":"stop 197"},{"stop_lat":53.3616253829,"stop_lon":-6.2728378104,"address":"Phibsborough SC","id":"stop 198"},{"stop_lat":53.3636218115,"stop_lon":-6.2722912462,"address":"Munster Street","id":"stop 199"},{"stop_lat":53.3674226926,"stop_lon":-6.2715964439,"address":"Prospect Way","id":"stop 200"},{"stop_lat":53.3682910987,"stop_lon":-6.2701186269,"address":"Botanic Road","id":"stop 201"},{"stop_lat":53.3700800876,"stop_lon":-6.2689039775,"address":"Fairfield Road","id":"stop 202"},{"stop_lat":53.3763927937,"stop_lon":-6.2500100281,"address":"Whitehall College","id":"stop 203"},{"stop_lat":53.3795883576,"stop_lon":-6.2466621927,"address":"Highfield Hospital","id":"stop 204"},{"stop_lat":53.3813753269,"stop_lon":-6.245326047,"address":"Iveragh Road","id":"stop 205"},{"stop_lat":53.383546089,"stop_lon":-6.2474767079,"address":"Collins Avenue West","id":"stop 206"},{"stop_lat":53.3848216307,"stop_lon":-6.2498747828,"address":"Larkhill Road","id":"stop 207"},{"stop_lat":53.3866539303,"stop_lon":-6.2479504082,"address":"Glendun Road","id":"stop 208"},{"stop_lat":53.3872711105,"stop_lon":-6.2459104473,"address":"Larkhill Road","id":"stop 209"},{"stop_lat":53.3875940813,"stop_lon":-6.2483177285,"address":"Crestfield Road","id":"stop 210"},{"stop_lat":53.3842808562,"stop_lon":-6.2491603306,"address":"Collins Avenue","id":"stop 211"},{"stop_lat":53.3831956351,"stop_lon":-6.2462583975,"address":"Whitehall","id":"stop 212"},{"stop_lat":53.381449544,"stop_lon":-6.2448720236,"address":"Iveragh Road","id":"stop 213"},{"stop_lat":53.3794084836,"stop_lon":-6.2466545518,"address":"Highfield Hospital","id":"stop 214"},{"stop_lat":53.381872287,"stop_lon":-6.2424494292,"address":"Collins Avenue","id":"stop 215"},{"stop_lat":53.3823308175,"stop_lon":-6.2381913197,"address":"Beaumont Road","id":"stop 216"},{"stop_lat":53.3843236218,"stop_lon":-6.2368011222,"address":"Grace Park Court","id":"stop 217"},{"stop_lat":53.385923899,"stop_lon":-6.2337883241,"address":"Shantalla Road","id":"stop 218"},{"stop_lat":53.3879405397,"stop_lon":-6.2449808412,"address":"Swords Road","id":"stop 220"},{"stop_lat":53.3858213106,"stop_lon":-6.2335369942,"address":"Beaumont Road","id":"stop 233"},{"stop_lat":53.3849504827,"stop_lon":-6.2348208427,"address":"Beaumont Grove","id":"stop 234"},{"stop_lat":53.3832966132,"stop_lon":-6.2372494565,"address":"Collinswood","id":"stop 235"},{"stop_lat":53.3820247431,"stop_lon":-6.23815886,"address":"Yellow Road","id":"stop 236"},{"stop_lat":53.3820319329,"stop_lon":-6.2435251998,"address":"Collins Avenue","id":"stop 237"},{"stop_lat":53.3856548986,"stop_lon":-6.2320104276,"address":"Coolgreena Road","id":"stop 242"},{"stop_lat":53.3857800608,"stop_lon":-6.2295396745,"address":"Lady of Mercy","id":"stop 243"},{"stop_lat":53.3849982137,"stop_lon":-6.2234985157,"address":"Skelly's Lane","id":"stop 244"},{"stop_lat":53.3844722444,"stop_lon":-6.219566606,"address":"Whitethorn Crescent","id":"stop 245"},{"stop_lat":53.3851504766,"stop_lon":-6.2162308772,"address":"Artane Castle","id":"stop 246"},{"stop_lat":53.3869761611,"stop_lon":-6.2145007559,"address":"Ardlea Road","id":"stop 247"},{"stop_lat":53.3855645602,"stop_lon":-6.2144696314,"address":"Maryfield Drive","id":"stop 248"},{"stop_lat":53.3849335492,"stop_lon":-6.216149745,"address":"Artane Castle","id":"stop 249"},{"stop_lat":53.38441945,"stop_lon":-6.2202453161,"address":"Skelly's Lane","id":"stop 250"},{"stop_lat":53.3848322787,"stop_lon":-6.2232197863,"address":"Elmount Crescent","id":"stop 251"},{"stop_lat":53.3855680158,"stop_lon":-6.2279699179,"address":"Lady of Mercy","id":"stop 252"},{"stop_lat":53.3899459507,"stop_lon":-6.2243900469,"address":"Beaumont Hospital","id":"stop 253"},{"stop_lat":53.3902652984,"stop_lon":-6.2241061137,"address":"Beaumont Hospital","id":"stop 254"},{"stop_lat":53.3855938804,"stop_lon":-6.2315318724,"address":"Coolgreena Road","id":"stop 255"},{"stop_lat":53.3540562845,"stop_lon":-6.2628533612,"address":"Parnell Square East","id":"stop 261"},{"stop_lat":53.353946961,"stop_lon":-6.2627526489,"address":"Parnell Square East","id":"stop 262"},{"stop_lat":53.3537456235,"stop_lon":-6.262505454,"address":"Parnell Square East","id":"stop 263"},{"stop_lat":53.3535353027,"stop_lon":-6.2622586268,"address":"Parnell Square East","id":"stop 264"},{"stop_lat":53.3533615685,"stop_lon":-6.2620553807,"address":"Parnell Square East","id":"stop 265"},{"stop_lat":53.3506233915,"stop_lon":-6.2604242916,"address":"O'Connell St Upper","id":"stop 270"},{"stop_lat":53.3485963626,"stop_lon":-6.25948542,"address":"O'Connell St Lower","id":"stop 271"},{"stop_lat":53.3514644799,"stop_lon":-6.2607806057,"address":"O'Connell St Upper","id":"stop 272"},{"stop_lat":53.347247416,"stop_lon":-6.2588194015,"address":"O'Connell Bridge","id":"stop 273"},{"stop_lat":53.3503490838,"stop_lon":-6.2607208686,"address":"O'Connell St Upper","id":"stop 274"},{"stop_lat":53.3774022009,"stop_lon":-6.3317965831,"address":"River Road","id":"stop 276"},{"stop_lat":53.3508223258,"stop_lon":-6.2605063198,"address":"O'Connell St Upper","id":"stop 277"},{"stop_lat":53.3515608719,"stop_lon":-6.2612273356,"address":"O'Connell St Upper","id":"stop 278"},{"stop_lat":53.3501317464,"stop_lon":-6.260609547,"address":"O'Connell St Upper","id":"stop 279"},{"stop_lat":53.351343535,"stop_lon":-6.2611160084,"address":"O'Connell St Upper","id":"stop 281"},{"stop_lat":53.3772826239,"stop_lon":-6.3283892838,"address":"Rathbourne Avenue","id":"stop 284"},{"stop_lat":53.3521708437,"stop_lon":-6.259910611,"address":"Cathal Brugha Street","id":"Stop No. 286"},{"stop_lat":53.3491688123,"stop_lon":-6.2556017035,"address":"Irish Life","id":"stop 288"},{"stop_lat":53.3490351823,"stop_lon":-6.2562981234,"address":"Abbey St Lower","id":"stop 289"},{"stop_lat":53.3489504003,"stop_lon":-6.2566470649,"address":"Abbey St Lower","id":"stop 291"},{"stop_lat":53.3491996948,"stop_lon":-6.2552549594,"address":"Abbey St Lower","id":"stop 292"},{"stop_lat":53.3488581696,"stop_lon":-6.2571014551,"address":"Abbey St Lower","id":"stop 293"},{"stop_lat":53.3481432679,"stop_lon":-6.256770126,"address":"Eden Quay","id":"stop 297"},{"stop_lat":53.3482006634,"stop_lon":-6.2563922678,"address":"Eden Quay","id":"stop 298"},{"stop_lat":53.3482418474,"stop_lon":-6.2561352357,"address":"Eden Quay","id":"stop 299"},{"stop_lat":53.3482992409,"stop_lon":-6.2557573758,"address":"Liberty Hall","id":"stop 300"},{"stop_lat":53.3479883676,"stop_lon":-6.2566262409,"address":"Eden Quay","id":"stop 301"},{"stop_lat":53.3480380962,"stop_lon":-6.2563388204,"address":"Eden Quay","id":"stop 302"},{"stop_lat":53.3480599981,"stop_lon":-6.2559924527,"address":"Eden Quay","id":"stop 303"},{"stop_lat":53.3345770895,"stop_lon":-6.2800874642,"address":"O'Donovan Road","id":"stop 307"},{"stop_lat":53.336771189,"stop_lon":-6.2795336569,"address":"Oscar Square","id":"stop 308"},{"stop_lat":53.3378498918,"stop_lon":-6.2789195882,"address":"Ardee Street","id":"stop 309"},{"stop_lat":53.3454764728,"stop_lon":-6.2662061555,"address":"Wellington Quay","id":"stop 312"},{"stop_lat":53.3469069007,"stop_lon":-6.2619724977,"address":"Bachelors Walk","id":"stop 313"},{"stop_lat":53.3470973048,"stop_lon":-6.2614690836,"address":"Bachelors Walk","id":"stop 315"},{"stop_lat":53.3465259445,"stop_lon":-6.2592693662,"address":"Westmoreland Street","id":"stop 317"},{"stop_lat":53.3464177131,"stop_lon":-6.259243736,"address":"Westmoreland Street","id":"stop 318"},{"stop_lat":53.3462744267,"stop_lon":-6.2592796139,"address":"Westmoreland Street","id":"stop 319"},{"stop_lat":53.3456456324,"stop_lon":-6.2593052325,"address":"Westmoreland Street","id":"stop 320"},{"stop_lat":53.4042549925,"stop_lon":-6.2653508453,"address":"Gulliver's Retail Pk","id":"stop 322"},{"stop_lat":53.3466970503,"stop_lon":-6.2599082595,"address":"Aston Quay","id":"stop 325"},{"stop_lat":53.3465535365,"stop_lon":-6.2605449472,"address":"Aston Quay","id":"stop 326"},{"stop_lat":53.3463499836,"stop_lon":-6.2613793339,"address":"Aston Quay","id":"stop 328"},{"stop_lat":53.3463188645,"stop_lon":-6.2617110397,"address":"Aston Quay","id":"stop 329"},{"stop_lat":53.3466922366,"stop_lon":-6.258346364,"address":"D'Olier Street","id":"stop 333"},{"stop_lat":53.3465811562,"stop_lon":-6.2581255911,"address":"D'Olier Street","id":"stop 334"},{"stop_lat":53.3463614054,"stop_lon":-6.2578491705,"address":"D'Olier Street","id":"stop 335"},{"stop_lat":53.3462516394,"stop_lon":-6.2577184667,"address":"D'Olier Street","id":"stop 336"},{"stop_lat":53.3460128066,"stop_lon":-6.2561360992,"address":"Townsend Street","id":"stop 340"},{"stop_lat":53.3455641183,"stop_lon":-6.2568002608,"address":"College Street","id":"stop 342"},{"stop_lat":53.3454758155,"stop_lon":-6.2562931941,"address":"Pearse St Garda Stn","id":"stop 345"},{"stop_lat":53.3455443982,"stop_lon":-6.2566809076,"address":"Pearse St Garda Stn","id":"stop 346"},{"stop_lat":53.3456319416,"stop_lon":-6.2497682496,"address":"Prince's St South","id":"stop 350"},{"stop_lat":53.3434182648,"stop_lon":-6.2453081738,"address":"Erne Street","id":"stop 351"},{"stop_lat":53.3429891458,"stop_lon":-6.24241214,"address":"Pearse Square","id":"stop 352"},{"stop_lat":53.3426158464,"stop_lon":-6.2396490317,"address":"Grand Canal Quay","id":"stop 353"},{"stop_lat":53.342235828,"stop_lon":-6.2364356898,"address":"Ringsend Road","id":"stop 354"},{"stop_lat":53.3418173478,"stop_lon":-6.2330587907,"address":"Ringsend Garage","id":"stop 355"},{"stop_lat":53.3419030234,"stop_lon":-6.2267174431,"address":"Ringsend","id":"stop 356"},{"stop_lat":53.339171044,"stop_lon":-6.2231214749,"address":"Irishtown Road","id":"stop 357"},{"stop_lat":53.3386127807,"stop_lon":-6.2230545825,"address":"Irishtown Road","id":"stop 371"},{"stop_lat":53.335488147,"stop_lon":-6.2196556714,"address":"Star of the Sea","id":"stop 372"},{"stop_lat":53.3342753313,"stop_lon":-6.2178892726,"address":"Farney Park","id":"stop 373"},{"stop_lat":53.3332284399,"stop_lon":-6.2164013421,"address":"Sandymount","id":"stop 374"},{"stop_lat":53.3340611347,"stop_lon":-6.2143845131,"address":"Dromard Terrace","id":"stop 375"},{"stop_lat":53.3307125262,"stop_lon":-6.2092542646,"address":"Lea Road","id":"stop 376"},{"stop_lat":53.3287289292,"stop_lon":-6.2088418953,"address":"Gilford Road","id":"stop 377"},{"stop_lat":53.3256502919,"stop_lon":-6.207334472,"address":"Sandymount Tower","id":"stop 378"},{"stop_lat":53.3247260855,"stop_lon":-6.2092347723,"address":"St John's Road","id":"stop 380"},{"stop_lat":53.3243237661,"stop_lon":-6.2123741934,"address":"St John's Church","id":"stop 381"},{"stop_lat":53.3250628542,"stop_lon":-6.2077194049,"address":"St John's Road","id":"stop 382"},{"stop_lat":53.3286049758,"stop_lon":-6.2089671996,"address":"Gilford Road","id":"stop 383"},{"stop_lat":53.3316339524,"stop_lon":-6.2101616049,"address":"Lea Road","id":"stop 384"},{"stop_lat":53.3323510231,"stop_lon":-6.2112276879,"address":"Newgrove Avenue","id":"stop 385"},{"stop_lat":53.3324995102,"stop_lon":-6.2157410577,"address":"Sandymount","id":"stop 387"},{"stop_lat":53.334508862,"stop_lon":-6.2184801726,"address":"Farney Park","id":"stop 388"},{"stop_lat":53.3352900818,"stop_lon":-6.2196338894,"address":"Star of the Sea","id":"stop 389"},{"stop_lat":53.3376299138,"stop_lon":-6.2222394793,"address":"Tritonville Road","id":"stop 390"},{"stop_lat":53.3400638555,"stop_lon":-6.2239253518,"address":"Bath Street","id":"stop 391"},{"stop_lat":53.3417336312,"stop_lon":-6.2274153211,"address":"Ringsend","id":"stop 392"},{"stop_lat":53.3369038877,"stop_lon":-6.2223747969,"address":"Tritonville Road","id":"stop 393"},{"stop_lat":53.3419400536,"stop_lon":-6.2352764544,"address":"Ringsend Road","id":"stop 395"},{"stop_lat":53.3424615904,"stop_lon":-6.2395502559,"address":"Grand Canal Quay","id":"stop 396"},{"stop_lat":53.3427855554,"stop_lon":-6.2420150073,"address":"Pearse Square","id":"stop 397"},{"stop_lat":53.343294935,"stop_lon":-6.2454784469,"address":"Erne Street","id":"stop 398"},{"stop_lat":53.3438668221,"stop_lon":-6.2483086014,"address":"Pearse Station","id":"stop 399"},{"stop_lat":53.3448464839,"stop_lon":-6.253209847,"address":"Shaw Street","id":"stop 400"},{"stop_lat":53.3426633325,"stop_lon":-6.2563478924,"address":"Nassau Street","id":"stop 404"},{"stop_lat":53.3424816892,"stop_lon":-6.2556043727,"address":"Nassau Street","id":"stop 405"},{"stop_lat":53.3426061452,"stop_lon":-6.2561249458,"address":"Nassau Street","id":"stop 406"},{"stop_lat":53.3483795867,"stop_lon":-6.253876506,"address":"Custom House","id":"stop 407"},{"stop_lat":53.3409707826,"stop_lon":-6.2500192396,"address":"Merrion Sq North","id":"stop 408"},{"stop_lat":53.3401367313,"stop_lon":-6.2476955956,"address":"Holles Street","id":"stop 409"},{"stop_lat":53.3388134509,"stop_lon":-6.2438903903,"address":"Mount Street Lower","id":"stop 410"},{"stop_lat":53.3381171192,"stop_lon":-6.2417715535,"address":"Mount Street Bridge","id":"stop 411"},{"stop_lat":53.3352555102,"stop_lon":-6.2372793191,"address":"Haddington Road","id":"stop 412"},{"stop_lat":53.3340941933,"stop_lon":-6.2365463941,"address":"Lansdowne Park","id":"stop 413"},{"stop_lat":53.3315738059,"stop_lon":-6.234473217,"address":"Lansdowne Road","id":"stop 414"},{"stop_lat":53.3303378154,"stop_lon":-6.2329477497,"address":"American Embassy","id":"stop 415"},{"stop_lat":53.3286399201,"stop_lon":-6.2293695691,"address":"RDS Ballsbridge","id":"stop 416"},{"stop_lat":53.3276995857,"stop_lon":-6.2259704205,"address":"Merrion Road","id":"stop 417"},{"stop_lat":53.3257198105,"stop_lon":-6.2233952975,"address":"British Embassy","id":"stop 418"},{"stop_lat":53.3239951058,"stop_lon":-6.2204495031,"address":"Shrewsbury Park","id":"stop 419"},{"stop_lat":53.3219108013,"stop_lon":-6.2175039217,"address":"Merlyn Road","id":"stop 420"},{"stop_lat":53.3200051794,"stop_lon":-6.2144911204,"address":"Merrion View Avenue","id":"stop 421"},{"stop_lat":53.3180641919,"stop_lon":-6.2103242807,"address":"St Vincent's Hosp","id":"stop 422"},{"stop_lat":53.3171485041,"stop_lon":-6.2074056583,"address":"Herbert Avenue","id":"stop 423"},{"stop_lat":53.3153943802,"stop_lon":-6.2037268662,"address":"Merrion Gates","id":"stop 424"},{"stop_lat":53.3157515264,"stop_lon":-6.2047625227,"address":"Merrion Gates","id":"stop 476"},{"stop_lat":53.3168630547,"stop_lon":-6.2069523201,"address":"Herbert Avenue","id":"stop 477"},{"stop_lat":53.3181142989,"stop_lon":-6.2112678253,"address":"St Vincent's Hosp","id":"stop 478"},{"stop_lat":53.3191439676,"stop_lon":-6.2134012867,"address":"Merrion Centre","id":"stop 479"},{"stop_lat":53.32084998,"stop_lon":-6.2162872054,"address":"Netherlands Embassy","id":"stop 480"},{"stop_lat":53.3223446398,"stop_lon":-6.218266443,"address":"Wanderers FC","id":"stop 481"},{"stop_lat":53.3247277781,"stop_lon":-6.221965295,"address":"Shrewsbury Road","id":"stop 482"},{"stop_lat":53.3259441075,"stop_lon":-6.2239714805,"address":"British Embassy","id":"stop 483"},{"stop_lat":53.3282515101,"stop_lon":-6.2286349708,"address":"RDS Ballsbridge","id":"stop 485"},{"stop_lat":53.3308552894,"stop_lon":-6.2339023084,"address":"American Embassy","id":"stop 487"},{"stop_lat":53.3330985546,"stop_lon":-6.236076947,"address":"Lansdowne Park","id":"stop 488"},{"stop_lat":53.3349420031,"stop_lon":-6.2373523127,"address":"St Mary's Rd South","id":"stop 489"},{"stop_lat":53.3365738419,"stop_lon":-6.238906806,"address":"Haddington Road","id":"stop 490"},{"stop_lat":53.3378140535,"stop_lon":-6.2413335109,"address":"Mount Street Bridge","id":"stop 491"},{"stop_lat":53.3385846851,"stop_lon":-6.2436144622,"address":"Mount Street Lower","id":"stop 492"},{"stop_lat":53.3398534164,"stop_lon":-6.2473768227,"address":"Holles Street","id":"stop 493"},{"stop_lat":53.3414355834,"stop_lon":-6.2516822523,"address":"Clare Street","id":"stop 494"},{"stop_lat":53.3435913198,"stop_lon":-6.2497467052,"address":"Pearse Station","id":"stop 495"},{"stop_lat":53.3494968761,"stop_lon":-6.2522235787,"address":"Bus\u00e1ras","id":"stop 496"},{"stop_lat":53.3505260754,"stop_lon":-6.2506943432,"address":"Connolly","id":"stop 497"},{"stop_lat":53.3574503386,"stop_lon":-6.2490886269,"address":"Summerhill Parade","id":"stop 499"},{"stop_lat":53.3590360763,"stop_lon":-6.2462891553,"address":"Ballybough Road","id":"stop 500"},{"stop_lat":53.3607056847,"stop_lon":-6.2436963743,"address":"Clonliffe Avenue","id":"stop 501"},{"stop_lat":53.3606013494,"stop_lon":-6.2433250395,"address":"Ballybough Road","id":"stop 509"},{"stop_lat":53.3591893775,"stop_lon":-6.2457119272,"address":"Charleville Avenue","id":"stop 510"},{"stop_lat":53.3575155897,"stop_lon":-6.2486352334,"address":"Summerhill Parade","id":"stop 511"},{"stop_lat":53.355211963,"stop_lon":-6.2539727681,"address":"Rutland Street","id":"stop 513"},{"stop_lat":53.3535348728,"stop_lon":-6.2480924008,"address":"Portland Row","id":"stop 515"},{"stop_lat":53.3556839194,"stop_lon":-6.2457056844,"address":"North Strand Road","id":"stop 516"},{"stop_lat":53.3589041624,"stop_lon":-6.2409909439,"address":"Waterloo Avenue","id":"stop 518"},{"stop_lat":53.3603387601,"stop_lon":-6.2395345287,"address":"North Strand Road","id":"stop 519"},{"stop_lat":53.3616370471,"stop_lon":-6.2379784607,"address":"Annesley Bridge Road","id":"stop 521"},{"stop_lat":53.363288949,"stop_lon":-6.2354159747,"address":"Fairview","id":"stop 522"},{"stop_lat":53.3642854537,"stop_lon":-6.2316933317,"address":"Marino College","id":"stop 523"},{"stop_lat":53.3649608735,"stop_lon":-6.2263309112,"address":"Howth Road","id":"stop 525"},{"stop_lat":53.3668695722,"stop_lon":-6.2211122786,"address":"Copeland Grove","id":"stop 526"},{"stop_lat":53.3680198762,"stop_lon":-6.2126788805,"address":"St Lawrence Road","id":"stop 527"},{"stop_lat":53.3692640807,"stop_lon":-6.2099367446,"address":"Castle Grove","id":"stop 528"},{"stop_lat":53.3705774149,"stop_lon":-6.2076123452,"address":"Collins Avenue","id":"stop 529"},{"stop_lat":53.3712245323,"stop_lon":-6.2040233297,"address":"Killester","id":"stop 530"},{"stop_lat":53.3732509125,"stop_lon":-6.2013078847,"address":"The Demesne","id":"stop 531"},{"stop_lat":53.3758020804,"stop_lon":-6.1934746858,"address":"The Meadows","id":"stop 532"},{"stop_lat":53.3775832778,"stop_lon":-6.1870561395,"address":"Ennafort Park","id":"stop 533"},{"stop_lat":53.3787502416,"stop_lon":-6.18164029,"address":"Cill Eanna","id":"stop 534"},{"stop_lat":53.380257073,"stop_lon":-6.1773069571,"address":"Raheny","id":"stop 535"},{"stop_lat":53.3804237567,"stop_lon":-6.1735117268,"address":"Raheny Library","id":"stop 536"},{"stop_lat":53.3799012003,"stop_lon":-6.168152635,"address":"Avondale Park","id":"stop 537"},{"stop_lat":53.3801380646,"stop_lon":-6.1642641832,"address":"Maywood","id":"stop 538"},{"stop_lat":53.3806736618,"stop_lon":-6.1593556415,"address":"Foxfield","id":"stop 539"},{"stop_lat":53.3813362764,"stop_lon":-6.1551179435,"address":"Blackbanks Coast","id":"stop 540"},{"stop_lat":53.3818727078,"stop_lon":-6.1520280684,"address":"James Larkin Road","id":"stop 541"},{"stop_lat":53.38366192,"stop_lon":-6.1462679499,"address":"Blackbanks","id":"stop 542"},{"stop_lat":53.38416759,"stop_lon":-6.1446824866,"address":"Kilbarrack Road","id":"stop 591"},{"stop_lat":53.3827330098,"stop_lon":-6.1483828725,"address":"James Larkin Road","id":"stop 592"},{"stop_lat":53.381848695,"stop_lon":-6.1516382572,"address":"Blackbanks","id":"stop 593"},{"stop_lat":53.3811633656,"stop_lon":-6.1555613621,"address":"Howth Road","id":"stop 594"},{"stop_lat":53.3805999504,"stop_lon":-6.159238563,"address":"Foxfield","id":"stop 595"},{"stop_lat":53.3802528433,"stop_lon":-6.1617939721,"address":"The Old Shieling","id":"stop 596"},{"stop_lat":53.3798981358,"stop_lon":-6.1656123554,"address":"Maywood","id":"stop 597"},{"stop_lat":53.3798466296,"stop_lon":-6.1692823774,"address":"Avondale Park","id":"stop 598"},{"stop_lat":53.3803003189,"stop_lon":-6.1730810784,"address":"Raheny Library","id":"stop 599"},{"stop_lat":53.3802479252,"stop_lon":-6.1761198105,"address":"Raheny","id":"stop 600"},{"stop_lat":53.3792234833,"stop_lon":-6.1796659966,"address":"Cill Eanna","id":"stop 601"},{"stop_lat":53.3781425248,"stop_lon":-6.183049071,"address":"Wade's Avenue","id":"stop 602"},{"stop_lat":53.377382159,"stop_lon":-6.1874254297,"address":"Ennafort Park","id":"stop 603"},{"stop_lat":53.376354644,"stop_lon":-6.1907908597,"address":"Ennafort Road","id":"stop 604"},{"stop_lat":53.3756666621,"stop_lon":-6.1934353266,"address":"The Meadows","id":"stop 605"},{"stop_lat":53.3747089784,"stop_lon":-6.1978646603,"address":"St Bridgets Church","id":"stop 606"},{"stop_lat":53.37251578,"stop_lon":-6.2020302137,"address":"The Demense","id":"stop 607"},{"stop_lat":53.3710783845,"stop_lon":-6.2044653148,"address":"Killester","id":"stop 608"},{"stop_lat":53.3698375441,"stop_lon":-6.2086202565,"address":"Castle Grove","id":"stop 609"},{"stop_lat":53.3683623013,"stop_lon":-6.2115374553,"address":"Ashbrook","id":"stop 610"},{"stop_lat":53.3667546791,"stop_lon":-6.2188329221,"address":"Hollybrook Park","id":"stop 611"},{"stop_lat":53.3657562265,"stop_lon":-6.22420913,"address":"Copeland Avenue","id":"stop 612"},{"stop_lat":53.364617471,"stop_lon":-6.2268109984,"address":"Marino Crescent Park","id":"stop 613"},{"stop_lat":53.3636380024,"stop_lon":-6.2334932303,"address":"Fairview","id":"stop 614"},{"stop_lat":53.3619064165,"stop_lon":-6.2373512989,"address":"Annesley Bridge","id":"stop 615"},{"stop_lat":53.3598447138,"stop_lon":-6.2395548963,"address":"Nth Strand Fire Stn","id":"stop 616"},{"stop_lat":53.3578945211,"stop_lon":-6.2420090964,"address":"Strandville Avenue","id":"stop 617"},{"stop_lat":53.356101178,"stop_lon":-6.2447420676,"address":"Newcomen Bridge","id":"stop 618"},{"stop_lat":53.354044625,"stop_lon":-6.2473053335,"address":"Amiens Street","id":"stop 619"},{"stop_lat":53.3509610944,"stop_lon":-6.2527795569,"address":"Talbot Street","id":"stop 620"},{"stop_lat":53.3505177759,"stop_lon":-6.2562676485,"address":"Talbot Street","id":"stop 621"},{"stop_lat":53.3801853071,"stop_lon":-6.189125238,"address":"Ribh Road","id":"stop 624"},{"stop_lat":53.3817875654,"stop_lon":-6.1863212973,"address":"Lein Gardens","id":"stop 625"},{"stop_lat":53.3844945184,"stop_lon":-6.1840564192,"address":"Edenmore Green","id":"stop 626"},{"stop_lat":53.385407017,"stop_lon":-6.1820030326,"address":"Edenmore Green","id":"stop 627"},{"stop_lat":53.3869549963,"stop_lon":-6.1839065792,"address":"Edenmore Grove","id":"stop 628"},{"stop_lat":53.3865279695,"stop_lon":-6.1859694247,"address":"Edenmore Drive","id":"stop 629"},{"stop_lat":53.3872439959,"stop_lon":-6.1893217523,"address":"Springdale Road","id":"stop 630"},{"stop_lat":53.3896443405,"stop_lon":-6.1893551804,"address":"Tonlegee Drive","id":"stop 633"},{"stop_lat":53.3902751967,"stop_lon":-6.1841411092,"address":"Tonlegee Avenue","id":"stop 634"},{"stop_lat":53.3890225361,"stop_lon":-6.1839238013,"address":"Glenwood Road","id":"stop 635"},{"stop_lat":53.3888586595,"stop_lon":-6.1867423481,"address":"Glenfarne Road","id":"stop 636"},{"stop_lat":53.3877918262,"stop_lon":-6.1898848542,"address":"Springdale Road","id":"stop 637"},{"stop_lat":53.3867623213,"stop_lon":-6.1883799961,"address":"Edenmore Avenue","id":"stop 638"},{"stop_lat":53.3863330185,"stop_lon":-6.1867444608,"address":"Edenmore Park","id":"stop 639"},{"stop_lat":53.3867053852,"stop_lon":-6.1834511398,"address":"Edenmore Grove","id":"stop 640"},{"stop_lat":53.3858263828,"stop_lon":-6.1823910815,"address":"Edenmore Green","id":"stop 641"},{"stop_lat":53.3847318483,"stop_lon":-6.183114229,"address":"Edenmore Green","id":"stop 642"},{"stop_lat":53.3835661359,"stop_lon":-6.1838854683,"address":"St Josephs Hospital","id":"stop 643"},{"stop_lat":53.3823625142,"stop_lon":-6.1857105766,"address":"Lein Park","id":"stop 644"},{"stop_lat":53.3801688019,"stop_lon":-6.1886298805,"address":"Ribh Road","id":"stop 645"},{"stop_lat":53.3762836659,"stop_lon":-6.1896665671,"address":"All Saints Road","id":"stop 649"},{"stop_lat":53.3754028537,"stop_lon":-6.1855254832,"address":"Sybil Hill Avenue","id":"stop 650"},{"stop_lat":53.3754794508,"stop_lon":-6.1799309091,"address":"All Saints Park","id":"stop 651"},{"stop_lat":53.3794630466,"stop_lon":-6.175341639,"address":"Raheny","id":"stop 653"},{"stop_lat":53.3792100758,"stop_lon":-6.1770209808,"address":"Watermill Road","id":"stop 654"},{"stop_lat":53.3777386714,"stop_lon":-6.1754304023,"address":"Watermill Drive","id":"stop 655"},{"stop_lat":53.3764702008,"stop_lon":-6.1777091918,"address":"St Anne's Avenue","id":"stop 656"},{"stop_lat":53.3755453979,"stop_lon":-6.178951117,"address":"All Saints Park","id":"stop 657"},{"stop_lat":53.3749800485,"stop_lon":-6.1831386199,"address":"All Saints Road","id":"stop 658"},{"stop_lat":53.3752374407,"stop_lon":-6.1858782135,"address":"Sybil Hill Avenue","id":"stop 659"},{"stop_lat":53.3747192481,"stop_lon":-6.2195075621,"address":"Donnycarney Church","id":"stop 664"},{"stop_lat":53.3724663178,"stop_lon":-6.2221264612,"address":"Casino Park","id":"stop 665"},{"stop_lat":53.3702331241,"stop_lon":-6.2242633478,"address":"Mount Temple School","id":"stop 666"},{"stop_lat":53.3679816455,"stop_lon":-6.2269868465,"address":"Brian Road","id":"stop 667"},{"stop_lat":53.3645749809,"stop_lon":-6.2293973169,"address":"Marino Crescent Park","id":"stop 668"},{"stop_lat":53.3663170048,"stop_lon":-6.2286789053,"address":"Malahide Road","id":"stop 669"},{"stop_lat":53.3689561148,"stop_lon":-6.2260296639,"address":"Mount Temple School","id":"stop 670"},{"stop_lat":53.370716842,"stop_lon":-6.2241530532,"address":"Nazareth House","id":"stop 671"},{"stop_lat":53.37346635,"stop_lon":-6.2210778208,"address":"Donnycarney Road","id":"stop 672"},{"stop_lat":53.3528581377,"stop_lon":-6.2485257595,"address":"Buckingham St Lower","id":"stop 675"},{"stop_lat":53.3750380599,"stop_lon":-6.197039132,"address":"St Brigid's Church","id":"stop 709"},{"stop_lat":53.3811136997,"stop_lon":-6.1757220247,"address":"Raheny Station","id":"stop 722"},{"stop_lat":53.384151788,"stop_lon":-6.1757274221,"address":"Raheny Road","id":"stop 723"},{"stop_lat":53.3869554629,"stop_lon":-6.1745100114,"address":"Grange Park Road","id":"stop 724"},{"stop_lat":53.3895723721,"stop_lon":-6.1704888113,"address":"Ardscoil La Salle","id":"stop 725"},{"stop_lat":53.3917483514,"stop_lon":-6.1676137807,"address":"Grange Road","id":"stop 726"},{"stop_lat":53.3937048519,"stop_lon":-6.1668380248,"address":"Ardara Avenue","id":"stop 727"},{"stop_lat":53.3953162107,"stop_lon":-6.1634905947,"address":"Holy Trinity Church","id":"stop 728"},{"stop_lat":53.3965584588,"stop_lon":-6.1624445952,"address":"Holy Trinity NS","id":"stop 729"},{"stop_lat":53.3981666977,"stop_lon":-6.1618188688,"address":"Grangemore Road","id":"stop 730"},{"stop_lat":53.397600355,"stop_lon":-6.1618132055,"address":"Grange Road","id":"stop 738"},{"stop_lat":53.3951450859,"stop_lon":-6.1634678892,"address":"Holy Trinity Church","id":"stop 739"},{"stop_lat":53.3931412776,"stop_lon":-6.1670126153,"address":"Ardara Avenue","id":"stop 740"},{"stop_lat":53.3919077252,"stop_lon":-6.1674565712,"address":"St Donagh's Road","id":"stop 741"},{"stop_lat":53.3898234138,"stop_lon":-6.169861588,"address":"Raheny Road","id":"stop 742"},{"stop_lat":53.3880248638,"stop_lon":-6.1727352382,"address":"Woodbine Park","id":"stop 743"},{"stop_lat":53.3850921988,"stop_lon":-6.1749204844,"address":"Belmont Park","id":"stop 744"},{"stop_lat":53.3813435656,"stop_lon":-6.1754716767,"address":"Raheny Station","id":"stop 745"},{"stop_lat":53.3401536166,"stop_lon":-6.2555942815,"address":"Kildare Street","id":"stop 746"},{"stop_lat":53.339930803,"stop_lon":-6.2557235187,"address":"Kildare Street","id":"stop 747"},{"stop_lat":53.3385095344,"stop_lon":-6.255030666,"address":"Huguenot Cemetery","id":"stop 748"},{"stop_lat":53.337620701,"stop_lon":-6.2508021472,"address":"Baggot St Lower","id":"stop 749"},{"stop_lat":53.3365710801,"stop_lon":-6.2484875033,"address":"Fitzwilliam Street","id":"stop 750"},{"stop_lat":53.3353205479,"stop_lon":-6.2465716355,"address":"Herbert Street","id":"stop 751"},{"stop_lat":53.3336716542,"stop_lon":-6.24446202,"address":"Baggot St Upper","id":"stop 752"},{"stop_lat":53.3324533903,"stop_lon":-6.2435210546,"address":"Waterloo Road","id":"stop 753"},{"stop_lat":53.3307837824,"stop_lon":-6.2442803273,"address":"Burlington Road","id":"stop 754"},{"stop_lat":53.3288280457,"stop_lon":-6.245141368,"address":"Wellington Lane","id":"stop 755"},{"stop_lat":53.3263997618,"stop_lon":-6.2425987467,"address":"Royal Hospital","id":"stop 756"},{"stop_lat":53.3240813372,"stop_lon":-6.2395865099,"address":"Donnybrook Village","id":"stop 757"},{"stop_lat":53.322686943,"stop_lon":-6.2376773804,"address":"Victoria Avenue","id":"stop 758"},{"stop_lat":53.3203488508,"stop_lon":-6.2333455168,"address":"Donnybrook Stadium","id":"stop 759"},{"stop_lat":53.3183301873,"stop_lon":-6.2305619559,"address":"Donnybrook Church","id":"stop 760"},{"stop_lat":53.3161004008,"stop_lon":-6.2274872137,"address":"Teresian School","id":"stop 761"},{"stop_lat":53.3145170649,"stop_lon":-6.2243709441,"address":"RTE","id":"stop 762"},{"stop_lat":53.3123201448,"stop_lon":-6.2211003191,"address":"Belfield Court","id":"stop 763"},{"stop_lat":53.3119010923,"stop_lon":-6.2213278571,"address":"Belfield Court","id":"stop 769"},{"stop_lat":53.3146361876,"stop_lon":-6.2257318113,"address":"RTE","id":"stop 770"},{"stop_lat":53.3158800692,"stop_lon":-6.2277815224,"address":"Teresian School","id":"stop 771"},{"stop_lat":53.3184852575,"stop_lon":-6.2313210636,"address":"Donnybrook Garage","id":"stop 772"},{"stop_lat":53.3199163485,"stop_lon":-6.2332733193,"address":"Donnybrook Road","id":"stop 773"},{"stop_lat":53.3216121236,"stop_lon":-6.2354999964,"address":"Donnybrook Garda Stn","id":"stop 774"},{"stop_lat":53.3234897098,"stop_lon":-6.2390854472,"address":"Donnybrook Village","id":"stop 775"},{"stop_lat":53.3254792403,"stop_lon":-6.2417358211,"address":"Morehampton Terrace","id":"stop 776"},{"stop_lat":53.3269721601,"stop_lon":-6.2436261436,"address":"Royal Hospital","id":"stop 777"},{"stop_lat":53.3286887363,"stop_lon":-6.2454473626,"address":"Waterloo Road","id":"stop 779"},{"stop_lat":53.3310633512,"stop_lon":-6.2443439182,"address":"Burlington Road","id":"stop 780"},{"stop_lat":53.3326262714,"stop_lon":-6.2436641026,"address":"Baggot Street","id":"stop 781"},{"stop_lat":53.3335838145,"stop_lon":-6.2446007675,"address":"Baggot St Upper","id":"stop 782"},{"stop_lat":53.3353085374,"stop_lon":-6.246977564,"address":"Baggot St Lower","id":"stop 783"},{"stop_lat":53.3364567281,"stop_lon":-6.2486573715,"address":"Fitzwilliam Street","id":"stop 784"},{"stop_lat":53.3371058976,"stop_lon":-6.2518593735,"address":"Pembroke St Lower","id":"stop 785"},{"stop_lat":53.3351467148,"stop_lon":-6.2561740358,"address":"Embassy of Malta","id":"stop 786"},{"stop_lat":53.339294372,"stop_lon":-6.258302473,"address":"Stephen's Green Nth","id":"stop 790"},{"stop_lat":53.3388796212,"stop_lon":-6.2569828305,"address":"Stephen's Green Nth","id":"stop 791"},{"stop_lat":53.3404489882,"stop_lon":-6.2585858085,"address":"Dawson Street","id":"stop 792"},{"stop_lat":53.340859786,"stop_lon":-6.2584038692,"address":"Dawson Street","id":"stop 793"},{"stop_lat":53.3587400433,"stop_lon":-6.2697242782,"address":"Berkeley Road","id":"stop 795"},{"stop_lat":53.3600182144,"stop_lon":-6.2698527858,"address":"Berkeley Road","id":"stop 796"},{"stop_lat":53.3607260028,"stop_lon":-6.2746621647,"address":"Phibsborough PO","id":"stop 797"},{"stop_lat":53.3594766361,"stop_lon":-6.2796407009,"address":"Rathdown Road","id":"stop 798"},{"stop_lat":53.35886871,"stop_lon":-6.281738551,"address":"Charleville Road","id":"stop 799"},{"stop_lat":53.3580651515,"stop_lon":-6.2846104289,"address":"Annamore Parade","id":"stop 800"},{"stop_lat":53.3574704998,"stop_lon":-6.2876390824,"address":"Annamore Road","id":"stop 801"},{"stop_lat":53.3564983225,"stop_lon":-6.2912987228,"address":"Drumalee","id":"stop 802"},{"stop_lat":53.3547130307,"stop_lon":-6.2940442139,"address":"Oxmantown Road","id":"stop 803"},{"stop_lat":53.3536849852,"stop_lon":-6.2956926805,"address":"O'Devaney Gardens","id":"stop 804"},{"stop_lat":53.3515565121,"stop_lon":-6.2977003861,"address":"Phoenix Park","id":"stop 807"},{"stop_lat":53.3539946695,"stop_lon":-6.2953498265,"address":"North Circular Road","id":"stop 808"},{"stop_lat":53.3552607398,"stop_lon":-6.2933763462,"address":"Marlborough Road","id":"stop 809"},{"stop_lat":53.3570998602,"stop_lon":-6.2899976413,"address":"Ellesmere Avenue","id":"stop 810"},{"stop_lat":53.3575671568,"stop_lon":-6.2874849682,"address":"Annamore Road","id":"stop 811"},{"stop_lat":53.3582663607,"stop_lon":-6.2842267437,"address":"Annamore Parade","id":"stop 812"},{"stop_lat":53.3591900461,"stop_lon":-6.2809593744,"address":"Charleville Road","id":"stop 813"},{"stop_lat":53.3605400151,"stop_lon":-6.2760970493,"address":"St Peter's Church","id":"stop 814"},{"stop_lat":53.359646218,"stop_lon":-6.2696124384,"address":"Mater Hospital","id":"stop 817"},{"stop_lat":53.3584811208,"stop_lon":-6.2692239448,"address":"O'Connell Avenue","id":"stop 818"},{"stop_lat":53.3563040209,"stop_lon":-6.2659919857,"address":"Blessington Street","id":"stop 819"},{"stop_lat":53.3619677951,"stop_lon":-6.2935139796,"address":"Carnlough Road","id":"stop 820"},{"stop_lat":53.3645519035,"stop_lon":-6.2938314364,"address":"Drumcliffe Road","id":"stop 821"},{"stop_lat":53.3671206776,"stop_lon":-6.2918203211,"address":"Mulroy Road","id":"stop 822"},{"stop_lat":53.368235154,"stop_lon":-6.2911896505,"address":"Kilkieran Road","id":"stop 823"},{"stop_lat":53.3697478519,"stop_lon":-6.293263095,"address":"Bannow Road","id":"stop 824"},{"stop_lat":53.3704294399,"stop_lon":-6.2969328259,"address":"St Finbar's Road","id":"stop 825"},{"stop_lat":53.3712178544,"stop_lon":-6.3011695076,"address":"Carnlough Road","id":"stop 826"},{"stop_lat":53.3712939491,"stop_lon":-6.3039918694,"address":"Ventry Park","id":"stop 827"},{"stop_lat":53.3710448241,"stop_lon":-6.2997486779,"address":"Broombridge Station","id":"stop 828"},{"stop_lat":53.3703968946,"stop_lon":-6.2959121952,"address":"St Finbar's Road","id":"stop 829"},{"stop_lat":53.3696243717,"stop_lon":-6.2921709802,"address":"Bannow Road","id":"stop 830"},{"stop_lat":53.3676619691,"stop_lon":-6.2913328129,"address":"Mulroy Road","id":"stop 831"},{"stop_lat":53.3636294546,"stop_lon":-6.2940636349,"address":"Drumcliffe Road","id":"stop 832"},{"stop_lat":53.3617761473,"stop_lon":-6.2933112838,"address":"Swilly Road","id":"stop 833"},{"stop_lat":53.3619754108,"stop_lon":-6.260427638,"address":"Binns Bridge","id":"stop 834"},{"stop_lat":53.3626280166,"stop_lon":-6.2632709616,"address":"St Brigid's Rd Lower","id":"stop 835"},{"stop_lat":53.3632915018,"stop_lon":-6.2662491624,"address":"Claude Road","id":"stop 836"},{"stop_lat":53.3637784077,"stop_lon":-6.268212837,"address":"David Road","id":"stop 837"},{"stop_lat":53.3643193961,"stop_lon":-6.270189391,"address":"Whitworth Road","id":"stop 838"},{"stop_lat":53.3637449204,"stop_lon":-6.2677634125,"address":"David Road","id":"stop 839"},{"stop_lat":53.3632433496,"stop_lon":-6.2654096661,"address":"Claude Road","id":"stop 840"},{"stop_lat":53.3621221995,"stop_lon":-6.2606320154,"address":"St Patrick's Road","id":"stop 841"},{"stop_lat":53.337251975,"stop_lon":-6.2563133892,"address":"Stephen's Green East","id":"stop 842"},{"stop_lat":53.3370024314,"stop_lon":-6.2564587207,"address":"Stephen's Green East","id":"stop 843"},{"stop_lat":53.3376318721,"stop_lon":-6.2558623985,"address":"Stephen's Green East","id":"stop 844"},{"stop_lat":53.3354534455,"stop_lon":-6.2562516183,"address":"Leeson St Lower","id":"stop 845"},{"stop_lat":53.333453733,"stop_lon":-6.2541109085,"address":"Fitzwilliam Place","id":"stop 846"},{"stop_lat":53.3316014452,"stop_lon":-6.2522196197,"address":"Leeson St Upper","id":"stop 847"},{"stop_lat":53.3297279908,"stop_lon":-6.2488879984,"address":"Sussex Road","id":"stop 848"},{"stop_lat":53.3278982726,"stop_lon":-6.2479270091,"address":"Appian Way","id":"stop 849"},{"stop_lat":53.3260857395,"stop_lon":-6.2511990312,"address":"Chelmsford Road","id":"stop 850"},{"stop_lat":53.3250997052,"stop_lon":-6.253221016,"address":"Chelmsford Road","id":"stop 851"},{"stop_lat":53.3244292665,"stop_lon":-6.2528580854,"address":"Ranelagh","id":"stop 852"},{"stop_lat":53.32259277,"stop_lon":-6.2483695771,"address":"Sandford Road","id":"stop 853"},{"stop_lat":53.3216316713,"stop_lon":-6.2465775632,"address":"Larch Grove","id":"stop 854"},{"stop_lat":53.3193022985,"stop_lon":-6.2428153659,"address":"Sandford Road","id":"stop 855"},{"stop_lat":53.3176551118,"stop_lon":-6.2408266797,"address":"Clonskeagh Road","id":"stop 856"},{"stop_lat":53.3165673801,"stop_lon":-6.2383798303,"address":"Clonskeagh Hospital","id":"stop 857"},{"stop_lat":53.3140944728,"stop_lon":-6.2383015722,"address":"Clonskeagh","id":"stop 858"},{"stop_lat":53.3145635684,"stop_lon":-6.2384173316,"address":"Clonskeagh","id":"stop 881"},{"stop_lat":53.3167046565,"stop_lon":-6.2391546765,"address":"Clonskeagh Hospital","id":"stop 882"},{"stop_lat":53.3176851573,"stop_lon":-6.2410355833,"address":"Eglinton Road","id":"stop 883"},{"stop_lat":53.3199969912,"stop_lon":-6.2442128444,"address":"Norwood Park","id":"stop 884"},{"stop_lat":53.3212589673,"stop_lon":-6.2462926212,"address":"Hollybank Ave Lower","id":"stop 885"},{"stop_lat":53.3225973962,"stop_lon":-6.2486846326,"address":"Merton Drive","id":"stop 886"},{"stop_lat":53.3242077457,"stop_lon":-6.2524618068,"address":"Ranelagh","id":"stop 887"},{"stop_lat":53.3780271155,"stop_lon":-6.2615921499,"address":"Lambay Road","id":"stop 89"},{"stop_lat":53.3160725163,"stop_lon":-6.2591581801,"address":"Cowper Road","id":"stop 893"},{"stop_lat":53.3151931375,"stop_lon":-6.2641919805,"address":"Cowper Road","id":"stop 894"},{"stop_lat":53.3139322643,"stop_lon":-6.2640180185,"address":"Palmeston Villas","id":"stop 895"},{"stop_lat":53.3133721496,"stop_lon":-6.2613542468,"address":"Palmerston Park","id":"stop 896"},{"stop_lat":53.3142996203,"stop_lon":-6.258389846,"address":"Palmerston Road","id":"stop 897"},{"stop_lat":53.3255834293,"stop_lon":-6.2524956567,"address":"Chelmsford Road","id":"stop 903"},{"stop_lat":53.3274174409,"stop_lon":-6.2488475157,"address":"Appian Way","id":"stop 904"},{"stop_lat":53.328810766,"stop_lon":-6.2476343773,"address":"Leeson St Upper","id":"stop 906"},{"stop_lat":53.3297193589,"stop_lon":-6.2507501086,"address":"St Johns Ambulance","id":"stop 907"},{"stop_lat":53.3311542855,"stop_lon":-6.2523730342,"address":"Grand Parade","id":"stop 908"},{"stop_lat":53.3331476599,"stop_lon":-6.2540783639,"address":"Fitzwilliam Place","id":"stop 909"},{"stop_lat":53.3898318021,"stop_lon":-6.1529011457,"address":"Naomh Barr\u00f3g GAA","id":"stop 956"},{"stop_lat":53.3909165332,"stop_lon":-6.1637852881,"address":"St. Donagh's","id":"stop 958"},{"stop_lat":53.3910184657,"stop_lon":-6.166908376,"address":"Grange Road","id":"stop 959"},{"stop_lat":53.3911576199,"stop_lon":-6.1718793056,"address":"Tonlegee Road","id":"stop 960"},{"stop_lat":53.39105683,"stop_lon":-6.1764545498,"address":"Millwood Villas","id":"stop 961"},{"stop_lat":53.3907949286,"stop_lon":-6.1828559742,"address":"Limewood","id":"stop 962"},{"stop_lat":53.3956824564,"stop_lon":-6.2154896382,"address":"Northside SC","id":"stop 969"},{"stop_lat":53.3969960429,"stop_lon":-6.2349237993,"address":"Aulden Grange","id":"stop 972"},{"stop_lat":53.3898045691,"stop_lon":-6.3030304627,"address":"Finglas Sports Centre","id":"stop 980"},{"stop_lat":53.3897809068,"stop_lon":-6.3070608325,"address":"Finglas Garda Stn","id":"stop 981"},{"stop_lat":53.3901416743,"stop_lon":-6.3109556922,"address":"Mellowes Road","id":"stop 983"},{"stop_lat":53.389911388,"stop_lon":-6.3067549496,"address":"Finglas Garda Stn","id":"stop 984"},{"stop_lat":53.3899247514,"stop_lon":-6.3038977252,"address":"Finglas Sports Centre","id":"stop 985"},{"stop_lat":53.3902199269,"stop_lon":-6.2993753855,"address":"Finglas","id":"stop 987"},{"stop_lat":53.397702597,"stop_lon":-6.2292251749,"address":"Astro Park","id":"stop 993"},{"stop_lat":53.3909514066,"stop_lon":-6.1819170834,"address":"Limewood","id":"stop 1005"},{"stop_lat":53.3354815055,"stop_lon":-6.2575568807,"address":"Earlsfort Terrace","id":"stop 1013"},{"stop_lat":53.3327303534,"stop_lon":-6.2599663551,"address":"Adelaide Road","id":"stop 1015"},{"stop_lat":53.3311593142,"stop_lon":-6.2644145804,"address":"South Richmond St","id":"stop 1016"},{"stop_lat":53.3292996512,"stop_lon":-6.2644750653,"address":"Rathmines Rd Lower","id":"stop 1017"},{"stop_lat":53.3275854591,"stop_lon":-6.2646497453,"address":"St Mary's College","id":"stop 1018"},{"stop_lat":53.3265475976,"stop_lon":-6.2649771177,"address":"Military Road","id":"stop 1019"},{"stop_lat":53.3251383838,"stop_lon":-6.2651093645,"address":"Rathmines","id":"stop 1020"},{"stop_lat":53.3213802466,"stop_lon":-6.265652126,"address":"Rathmines Rd Upper","id":"stop 1021"},{"stop_lat":53.3195217438,"stop_lon":-6.2645566742,"address":"Summerville Park","id":"stop 1022"},{"stop_lat":53.317046189,"stop_lon":-6.264912289,"address":"Rathmines Close","id":"stop 1023"},{"stop_lat":53.3158523431,"stop_lon":-6.2650207561,"address":"Frankfort Avenue","id":"stop 1024"},{"stop_lat":53.3115998655,"stop_lon":-6.262476823,"address":"Trinity Hall","id":"stop 1025"},{"stop_lat":53.3091057708,"stop_lon":-6.2603270822,"address":"Orwell Park","id":"stop 1026"},{"stop_lat":53.30873794,"stop_lon":-6.2579109411,"address":"Dodder Walk","id":"stop 1027"},{"stop_lat":53.3084991106,"stop_lon":-6.2557146811,"address":"South Hill","id":"stop 1028"},{"stop_lat":53.3082596342,"stop_lon":-6.2553192659,"address":"South Hill","id":"stop 1062"},{"stop_lat":53.3085720815,"stop_lon":-6.2588631182,"address":"Dodder Walk","id":"stop 1063"},{"stop_lat":53.3094291383,"stop_lon":-6.2609292206,"address":"Dartry Road","id":"stop 1064"},{"stop_lat":53.3118290249,"stop_lon":-6.2627826802,"address":"Trinity Hall","id":"stop 1065"},{"stop_lat":53.3137534806,"stop_lon":-6.2640853083,"address":"Rathmines Rd Upper","id":"stop 1066"},{"stop_lat":53.3170507712,"stop_lon":-6.2652273064,"address":"Rathmines Close","id":"stop 1067"},{"stop_lat":53.3205584447,"stop_lon":-6.2653852367,"address":"Church Avenue","id":"stop 1068"},{"stop_lat":53.3232852636,"stop_lon":-6.2656198954,"address":"Swan Centre","id":"stop 1069"},{"stop_lat":53.324980184,"stop_lon":-6.2653559829,"address":"Rathmines","id":"stop 1070"},{"stop_lat":53.3272180362,"stop_lon":-6.2647247117,"address":"St Mary's College","id":"stop 1071"},{"stop_lat":53.3310269733,"stop_lon":-6.264585114,"address":"South Richmond St","id":"stop 1072"},{"stop_lat":53.3337954595,"stop_lon":-6.2639772007,"address":"Harcourt Luas","id":"stop 1074"},{"stop_lat":53.3231305919,"stop_lon":-6.2654910626,"address":"Swan Centre","id":"stop 1076"},{"stop_lat":53.3215729885,"stop_lon":-6.266544985,"address":"Rathmines Garda Stn","id":"stop 1077"},{"stop_lat":53.3194127649,"stop_lon":-6.2688090704,"address":"Rathgar Place","id":"stop 1078"},{"stop_lat":53.3166546242,"stop_lon":-6.2707518743,"address":"Frankfort Avenue","id":"stop 1079"},{"stop_lat":53.3149091987,"stop_lon":-6.2718730635,"address":"Auburn Villas","id":"stop 1080"},{"stop_lat":53.3126497029,"stop_lon":-6.2734951735,"address":"Rathgar Village","id":"stop 1081"},{"stop_lat":53.3116759487,"stop_lon":-6.275770632,"address":"Terenure Road East","id":"stop 1082"},{"stop_lat":53.3111455613,"stop_lon":-6.2782532531,"address":"Brighton Road","id":"stop 1083"},{"stop_lat":53.3100994852,"stop_lon":-6.282377314,"address":"St Joseph's BNS","id":"stop 1085"},{"stop_lat":53.3096695705,"stop_lon":-6.285606083,"address":"Terenure Road West","id":"stop 1086"},{"stop_lat":53.3103351138,"stop_lon":-6.2893912601,"address":"Greenlea Rd","id":"stop 1087"},{"stop_lat":53.3109735888,"stop_lon":-6.2931776326,"address":"Parkmore Drive","id":"stop 1088"},{"stop_lat":53.3116555855,"stop_lon":-6.297502661,"address":"Lavarna Grove","id":"stop 1089"},{"stop_lat":53.3118906499,"stop_lon":-6.298228688,"address":"Terenure Road West","id":"stop 1117"},{"stop_lat":53.3113669928,"stop_lon":-6.2949178283,"address":"Hazelbrook Road","id":"stop 1118"},{"stop_lat":53.3109356902,"stop_lon":-6.2924137634,"address":"Parkmore Drive","id":"stop 1119"},{"stop_lat":53.3101981052,"stop_lon":-6.2879860593,"address":"Terenure Garda Stn","id":"stop 1120"},{"stop_lat":53.3090015976,"stop_lon":-6.2854077479,"address":"Templeogue Road","id":"stop 1121"},{"stop_lat":53.3072196343,"stop_lon":-6.2883753525,"address":"Rathdown Park","id":"stop 1122"},{"stop_lat":53.3055770247,"stop_lon":-6.2910370301,"address":"Lakelands Park","id":"stop 1123"},{"stop_lat":53.3041728177,"stop_lon":-6.2934038975,"address":"Terenure College","id":"stop 1124"},{"stop_lat":53.3023902202,"stop_lon":-6.2963408423,"address":"Bushy Park House","id":"stop 1159"},{"stop_lat":53.3043935295,"stop_lon":-6.2931250017,"address":"Terenure College","id":"stop 1160"},{"stop_lat":53.3060631361,"stop_lon":-6.2904624011,"address":"Lakelands Park","id":"stop 1161"},{"stop_lat":53.3077322506,"stop_lon":-6.2877695971,"address":"Rathdown Park","id":"stop 1162"},{"stop_lat":53.3088733211,"stop_lon":-6.2858630918,"address":"Terenure Library","id":"stop 1163"},{"stop_lat":53.3104116361,"stop_lon":-6.2815844009,"address":"Terenure Road East","id":"stop 1164"},{"stop_lat":53.3117124366,"stop_lon":-6.2764295039,"address":"Brighton Road","id":"stop 1165"},{"stop_lat":53.3138905068,"stop_lon":-6.2729047841,"address":"Winton Avenue","id":"stop 1166"},{"stop_lat":53.3159449092,"stop_lon":-6.2713959484,"address":"Garville Avenue","id":"stop 1167"},{"stop_lat":53.3179291684,"stop_lon":-6.2700098826,"address":"Spire View Lane","id":"stop 1168"},{"stop_lat":53.3200562646,"stop_lon":-6.2685578599,"address":"Rathmines Park","id":"stop 1169"},{"stop_lat":53.3216895475,"stop_lon":-6.2665252488,"address":"Rathmines Garda Stn","id":"stop 1170"},{"stop_lat":53.350317687,"stop_lon":-6.2542629491,"address":"Gardiner Street Lwr","id":"stop 1171"},{"stop_lat":53.3517433498,"stop_lon":-6.2552562173,"address":"Railway Street","id":"stop 1172"},{"stop_lat":53.3537055684,"stop_lon":-6.2566783233,"address":"Gardiner Street Lwr","id":"stop 1173"},{"stop_lat":53.3561865815,"stop_lon":-6.2585451254,"address":"Mountjoy Sq West","id":"stop 1174"},{"stop_lat":53.3584131945,"stop_lon":-6.2608431821,"address":"Gardiner Street Upr","id":"stop 1175"},{"stop_lat":53.3993550471,"stop_lon":-6.2218778032,"address":"Coolock Lane Park","id":"stop 1176"},{"stop_lat":53.4008973631,"stop_lon":-6.2252574828,"address":"Clonshaugh Ind Est W","id":"stop 1177"},{"stop_lat":53.4034534097,"stop_lon":-6.2188492428,"address":"Clonshaugh Ind Est N","id":"stop 1178"},{"stop_lat":53.3999311496,"stop_lon":-6.2189211831,"address":"Clonshaugh Ind Est E","id":"stop 1179"},{"stop_lat":53.3508599228,"stop_lon":-6.253850228,"address":"Moland Street","id":"stop 1184"},{"stop_lat":53.3763670141,"stop_lon":-6.2215130465,"address":"Oak Road","id":"stop 1185"},{"stop_lat":53.3776431058,"stop_lon":-6.2263299379,"address":"Belton Park Road","id":"stop 1186"},{"stop_lat":53.3786075087,"stop_lon":-6.2313554411,"address":"Celtic Park Road","id":"stop 1187"},{"stop_lat":53.3800184911,"stop_lon":-6.2355960832,"address":"Grace Park Heights","id":"stop 1188"},{"stop_lat":53.3801561172,"stop_lon":-6.2357858078,"address":"Grace Park Heights","id":"stop 1190"},{"stop_lat":53.3792171884,"stop_lon":-6.2330738402,"address":"Grace Park Meadows","id":"stop 1191"},{"stop_lat":53.3786331968,"stop_lon":-6.2306629311,"address":"Celtic Park Road","id":"stop 1192"},{"stop_lat":53.3779921991,"stop_lon":-6.2274427688,"address":"Grace Park Meadows","id":"stop 1193"},{"stop_lat":53.3775262086,"stop_lon":-6.2251172819,"address":"Belton Park Road","id":"stop 1194"},{"stop_lat":53.3763899322,"stop_lon":-6.2212415396,"address":"Oak Road","id":"stop 1195"},{"stop_lat":53.3780410338,"stop_lon":-6.2144387216,"address":"Elm Mount Road","id":"stop 1196"},{"stop_lat":53.3792322772,"stop_lon":-6.211758333,"address":"Killester Avenue","id":"stop 1197"},{"stop_lat":53.3825121952,"stop_lon":-6.2069155907,"address":"Mornington Grove","id":"stop 1198"},{"stop_lat":53.3849844628,"stop_lon":-6.2027676145,"address":"Mask Avenue","id":"stop 1199"},{"stop_lat":53.3869626487,"stop_lon":-6.2010304891,"address":"Chanel College","id":"stop 1200"},{"stop_lat":53.3907898126,"stop_lon":-6.1961478429,"address":"Brookville Cresent","id":"stop 1201"},{"stop_lat":53.3925013827,"stop_lon":-6.1934290504,"address":"Newtown Cottages","id":"stop 1202"},{"stop_lat":53.3967263536,"stop_lon":-6.1875356703,"address":"Newtown Road","id":"stop 1203"},{"stop_lat":53.4015026049,"stop_lon":-6.1818582293,"address":"Clare Hall","id":"stop 1205"},{"stop_lat":53.3997058969,"stop_lon":-6.1842809197,"address":"Belcamp Lane","id":"stop 1218"},{"stop_lat":53.3813021271,"stop_lon":-6.2083343921,"address":"Danieli Road","id":"stop 1219"},{"stop_lat":53.3787625063,"stop_lon":-6.2121989015,"address":"Killester Avenue","id":"stop 1220"},{"stop_lat":53.3768165001,"stop_lon":-6.2160982541,"address":"Mayfield Park","id":"stop 1221"},{"stop_lat":53.3840661618,"stop_lon":-6.2068502818,"address":"Ardlea Road","id":"stop 1222"},{"stop_lat":53.3852506199,"stop_lon":-6.2085143524,"address":"Chanel Avenue","id":"stop 1223"},{"stop_lat":53.3866441578,"stop_lon":-6.2109364912,"address":"Maryfield Crescent","id":"stop 1224"},{"stop_lat":53.3868593792,"stop_lon":-6.2139042693,"address":"Maryfield Drive","id":"stop 1225"},{"stop_lat":53.3885824619,"stop_lon":-6.2149296762,"address":"Ardmore Drive","id":"stop 1226"},{"stop_lat":53.3911373108,"stop_lon":-6.2150783661,"address":"Castlekevin Road","id":"stop 1227"},{"stop_lat":53.3924289765,"stop_lon":-6.2185127373,"address":"Kilbarron Road","id":"stop 1228"},{"stop_lat":53.3943116012,"stop_lon":-6.2254262893,"address":"Kilbarron Drive","id":"stop 1229"},{"stop_lat":53.3954889983,"stop_lon":-6.2278434264,"address":"Castletimon Road","id":"stop 1231"},{"stop_lat":53.3952854835,"stop_lon":-6.23048341,"address":"Castletimon Park","id":"stop 1232"},{"stop_lat":53.3943619874,"stop_lon":-6.2312435009,"address":"Castletimon Drive","id":"stop 1233"},{"stop_lat":53.3946878729,"stop_lon":-6.2326133967,"address":"Ballyshannon Avenue","id":"stop 1234"},{"stop_lat":53.3947366847,"stop_lon":-6.2256040842,"address":"Kilbarron Road","id":"stop 1235"},{"stop_lat":53.39267868,"stop_lon":-6.2189834723,"address":"Cromcastle Avenue","id":"stop 1237"},{"stop_lat":53.3915662234,"stop_lon":-6.214910057,"address":"Kilmore Avenue","id":"stop 1238"},{"stop_lat":53.3890041899,"stop_lon":-6.2148819578,"address":"St John of Gods NS","id":"stop 1239"},{"stop_lat":53.386818428,"stop_lon":-6.2111697323,"address":"Maryfield Crescent","id":"stop 1240"},{"stop_lat":53.3858794294,"stop_lon":-6.209089308,"address":"Chanel Avenue","id":"stop 1241"},{"stop_lat":53.3844919489,"stop_lon":-6.2070729228,"address":"Ardbeg Road","id":"stop 1242"},{"stop_lat":53.3949003131,"stop_lon":-6.1999137413,"address":"Greencastle Avenue","id":"stop 1243"},{"stop_lat":53.3929072416,"stop_lon":-6.220447503,"address":"Cromcastle Green","id":"stop 1244"},{"stop_lat":53.3979972687,"stop_lon":-6.2062194096,"address":"Glin Avenue","id":"stop 1245"},{"stop_lat":53.3934932335,"stop_lon":-6.2229792886,"address":"Kilbarron Park","id":"stop 1246"},{"stop_lat":53.3950810945,"stop_lon":-6.1999812972,"address":"Greencastle Road","id":"stop 1247"},{"stop_lat":53.3929893359,"stop_lon":-6.1971675234,"address":"Coolock Ind Estate","id":"stop 1248"},{"stop_lat":53.3951809649,"stop_lon":-6.2012402174,"address":"Coolock Drive","id":"stop 1249"},{"stop_lat":53.3937390061,"stop_lon":-6.2075563458,"address":"Bunratty Road","id":"stop 1250"},{"stop_lat":53.3934573359,"stop_lon":-6.2223793176,"address":"St Luke's Church","id":"stop 1251"},{"stop_lat":53.3938639431,"stop_lon":-6.2146935925,"address":"Tranquility Grove","id":"stop 1253"},{"stop_lat":53.3951173598,"stop_lon":-6.2113629964,"address":"Bunratty Road","id":"stop 1254"},{"stop_lat":53.3943535025,"stop_lon":-6.2089740732,"address":"Adare Park","id":"stop 1255"},{"stop_lat":53.3936309458,"stop_lon":-6.20694438,"address":"Bunratty Avenue","id":"stop 1256"},{"stop_lat":53.3981874225,"stop_lon":-6.1908271358,"address":"Priorswood Road","id":"stop 1258"},{"stop_lat":53.3985904098,"stop_lon":-6.1948854845,"address":"The Link Road","id":"stop 1259"},{"stop_lat":53.4001778029,"stop_lon":-6.1988186835,"address":"Ferrycarrig Green","id":"stop 1260"},{"stop_lat":53.4020042292,"stop_lon":-6.2049078162,"address":"Moat Avenue","id":"stop 1262"},{"stop_lat":53.3982215297,"stop_lon":-6.1907053814,"address":"Marigold Avenue","id":"stop 1265"},{"stop_lat":53.4020554115,"stop_lon":-6.2047251844,"address":"Priorswood Road","id":"stop 1266"},{"stop_lat":53.4008555066,"stop_lon":-6.2002488701,"address":"Ferrycarrig Park","id":"stop 1267"},{"stop_lat":53.3998942675,"stop_lon":-6.1978982429,"address":"Belcamp Avenue","id":"stop 1268"},{"stop_lat":53.3984289595,"stop_lon":-6.193719317,"address":"Marigold Road","id":"stop 1269"},{"stop_lat":53.3964970027,"stop_lon":-6.1872296238,"address":"Newtown Road","id":"stop 1270"},{"stop_lat":53.3928823822,"stop_lon":-6.1918791857,"address":"Newtown Cottages","id":"stop 1272"},{"stop_lat":53.3911092146,"stop_lon":-6.1952772887,"address":"Coolock Leisureplex","id":"stop 1273"},{"stop_lat":53.388938817,"stop_lon":-6.1979701937,"address":"St Brendans Church","id":"stop 1274"},{"stop_lat":53.3855857653,"stop_lon":-6.202110858,"address":"Mask Avenue","id":"stop 1275"},{"stop_lat":53.3843305541,"stop_lon":-6.2029154287,"address":"Mask Park","id":"stop 1276"},{"stop_lat":53.3826814602,"stop_lon":-6.2062169636,"address":"Mornington Grove","id":"stop 1277"},{"stop_lat":53.3442366224,"stop_lon":-6.2613001181,"address":"College Green","id":"stop 1278"},{"stop_lat":53.3442604936,"stop_lon":-6.2617046665,"address":"College Green","id":"stop 1279"},{"stop_lat":53.4001962884,"stop_lon":-6.3031432926,"address":"McKelvey Avenue","id":"stop 1280"},{"stop_lat":53.3423417959,"stop_lon":-6.2645010827,"address":"S Great George's St","id":"stop 1282"},{"stop_lat":53.3418087219,"stop_lon":-6.2649282295,"address":"S Great George's St","id":"stop 1283"},{"stop_lat":53.338128351,"stop_lon":-6.2658735572,"address":"Redmond's Hill","id":"stop 1284"},{"stop_lat":53.3343784056,"stop_lon":-6.2651247543,"address":"Camden Street Lower","id":"stop 1285"},{"stop_lat":53.3324996495,"stop_lon":-6.2657265348,"address":"Harrington Street","id":"stop 1286"},{"stop_lat":53.3324783726,"stop_lon":-6.2661177907,"address":"Synge Street","id":"stop 1287"},{"stop_lat":53.3323227536,"stop_lon":-6.2696376223,"address":"Victoria Street","id":"stop 1288"},{"stop_lat":53.3321293613,"stop_lon":-6.2730388328,"address":"Longwood Avenue","id":"stop 1289"},{"stop_lat":53.3307310457,"stop_lon":-6.2751673188,"address":"Clanbrassil St Upper","id":"stop 1290"},{"stop_lat":53.3284466112,"stop_lon":-6.2763104414,"address":"Harold's Cross Road","id":"stop 1291"},{"stop_lat":53.3256246051,"stop_lon":-6.278195704,"address":"Harold's Cross Park","id":"stop 1292"},{"stop_lat":53.3228603639,"stop_lon":-6.2791026297,"address":"Parkview Avenue","id":"stop 1293"},{"stop_lat":53.3206000263,"stop_lon":-6.2788033063,"address":"Lady of the Rosary","id":"stop 1294"},{"stop_lat":53.3179148923,"stop_lon":-6.2795868171,"address":"Kenilworth Park","id":"stop 1295"},{"stop_lat":53.3155627461,"stop_lon":-6.2816476229,"address":"Mount Tallant Avenue","id":"stop 1296"},{"stop_lat":53.3124096124,"stop_lon":-6.2823896141,"address":"Whitton Road","id":"stop 1297"},{"stop_lat":53.3107469925,"stop_lon":-6.283026651,"address":"Terenure","id":"stop 1298"},{"stop_lat":53.3083957028,"stop_lon":-6.2839013564,"address":"Rathfarnham Road","id":"stop 1299"},{"stop_lat":53.3061507464,"stop_lon":-6.2834211767,"address":"Rathdown Park","id":"stop 1300"},{"stop_lat":53.3074174244,"stop_lon":-6.28400062,"address":"War Memorial Hall","id":"stop 1335"},{"stop_lat":53.308900906,"stop_lon":-6.2840311597,"address":"Terenure","id":"stop 1336"},{"stop_lat":53.3111790374,"stop_lon":-6.283069341,"address":"Terenure Road North","id":"stop 1337"},{"stop_lat":53.3124303863,"stop_lon":-6.2825838843,"address":"Whitton Road","id":"stop 1338"},{"stop_lat":53.3150238623,"stop_lon":-6.282299647,"address":"Harold's Cross Road","id":"stop 1339"},{"stop_lat":53.3164701423,"stop_lon":-6.2809957809,"address":"Mount Tallant Avenue","id":"stop 1340"},{"stop_lat":53.3192275895,"stop_lon":-6.2789936358,"address":"Kenilworth Park","id":"stop 1341"},{"stop_lat":53.3213454991,"stop_lon":-6.2793887592,"address":"Lady of the Rosary","id":"stop 1342"},{"stop_lat":53.322667285,"stop_lon":-6.2794256441,"address":"Harold's Cross Park","id":"stop 1343"},{"stop_lat":53.3271710644,"stop_lon":-6.2776079634,"address":"St Claire's NS","id":"stop 1344"},{"stop_lat":53.3287960763,"stop_lon":-6.2762362964,"address":"Le Vere Terrace","id":"stop 1345"},{"stop_lat":53.3311830099,"stop_lon":-6.2753442727,"address":"Clanbrassil St Upper","id":"stop 1347"},{"stop_lat":53.3322495354,"stop_lon":-6.2738898328,"address":"Spencer St South","id":"stop 1348"},{"stop_lat":53.3323857279,"stop_lon":-6.2708813229,"address":"Carlisle Street","id":"stop 1349"},{"stop_lat":53.3325610928,"stop_lon":-6.2674808118,"address":"Harrington Street","id":"stop 1350"},{"stop_lat":53.3344454316,"stop_lon":-6.2654073338,"address":"Camden Street Lower","id":"stop 1352"},{"stop_lat":53.3360095336,"stop_lon":-6.265418938,"address":"Pleasants Street","id":"stop 1353"},{"stop_lat":53.3390480889,"stop_lon":-6.2660765149,"address":"Aungier Street","id":"stop 1354"},{"stop_lat":53.3400962426,"stop_lon":-6.2658387554,"address":"Whitefriars Street","id":"stop 1355"},{"stop_lat":53.3425678944,"stop_lon":-6.2645970302,"address":"Exchequer Street","id":"stop 1357"},{"stop_lat":53.3443047134,"stop_lon":-6.2628893894,"address":"Dame Street","id":"stop 1358"},{"stop_lat":53.3443994064,"stop_lon":-6.2613685904,"address":"College Green","id":"stop 1359"},{"stop_lat":53.3319833878,"stop_lon":-6.2766182775,"address":"Raymond Street","id":"stop 1360"},{"stop_lat":53.3312039604,"stop_lon":-6.2799078735,"address":"National Stadium","id":"stop 1362"},{"stop_lat":53.3318459312,"stop_lon":-6.285167265,"address":"St Anne's Road S","id":"stop 1363"},{"stop_lat":53.3323458739,"stop_lon":-6.2880601203,"address":"Dolphin Avenue","id":"stop 1364"},{"stop_lat":53.3329015319,"stop_lon":-6.290455313,"address":"Dolphins Barn Church","id":"stop 1365"},{"stop_lat":53.3351498677,"stop_lon":-6.2943145906,"address":"St Andrews Centre","id":"stop 1366"},{"stop_lat":53.335685293,"stop_lon":-6.2965606635,"address":"Rialto Church","id":"stop 1367"},{"stop_lat":53.338867215,"stop_lon":-6.3022455204,"address":"Mayfield Road","id":"stop 1369"},{"stop_lat":53.3391885808,"stop_lon":-6.3052512456,"address":"Hybreasal House","id":"stop 1370"},{"stop_lat":53.3388761645,"stop_lon":-6.3079367064,"address":"Suir Road","id":"stop 1371"},{"stop_lat":53.3381036946,"stop_lon":-6.3098744464,"address":"Goldenbridge Avenue","id":"stop 1372"},{"stop_lat":53.3377747591,"stop_lon":-6.3120348655,"address":"Stephen's Road","id":"stop 1373"},{"stop_lat":53.3392177103,"stop_lon":-6.3130140712,"address":"Southern Cross Ave","id":"stop 1374"},{"stop_lat":53.3395561606,"stop_lon":-6.3121597319,"address":"Bulfin Road","id":"stop 1375"},{"stop_lat":53.3395079106,"stop_lon":-6.3087526718,"address":"South Circular Road","id":"stop 1376"},{"stop_lat":53.3391633646,"stop_lon":-6.3047416553,"address":"South Circular Road","id":"stop 1377"},{"stop_lat":53.3388278749,"stop_lon":-6.3013760827,"address":"Mayfield Road","id":"stop 1378"},{"stop_lat":53.3373397014,"stop_lon":-6.2991226532,"address":"Rialto Luas","id":"stop 1379"},{"stop_lat":53.3356410023,"stop_lon":-6.2959767991,"address":"Rialto Church","id":"stop 1380"},{"stop_lat":53.3351237466,"stop_lon":-6.2937450263,"address":"St Andrews Centre","id":"stop 1381"},{"stop_lat":53.3331731707,"stop_lon":-6.2905946021,"address":"Dolphins Barn Church","id":"stop 1382"},{"stop_lat":53.3322710784,"stop_lon":-6.2866066629,"address":"Dolphin Avenue","id":"stop 1383"},{"stop_lat":53.3313561982,"stop_lon":-6.2823641538,"address":"Dufferin Avenue","id":"stop 1384"},{"stop_lat":53.3318004003,"stop_lon":-6.2782622718,"address":"Griffith College","id":"stop 1385"},{"stop_lat":53.3295526186,"stop_lon":-6.284448499,"address":"Clogher Road","id":"stop 1386"},{"stop_lat":53.3280405494,"stop_lon":-6.2868062392,"address":"Aughavanagh Road","id":"stop 1387"},{"stop_lat":53.3267732721,"stop_lon":-6.2911957887,"address":"Rutland Avenue","id":"stop 1388"},{"stop_lat":53.3259359421,"stop_lon":-6.2954928715,"address":"Pearse College","id":"stop 1389"},{"stop_lat":53.3249002682,"stop_lon":-6.3149601372,"address":"Crumlin Pool","id":"stop 1396"},{"stop_lat":53.3250914014,"stop_lon":-6.3138567001,"address":"Kildare Road","id":"stop 1397"},{"stop_lat":53.3253013794,"stop_lon":-6.3102754507,"address":"Windmill Road","id":"stop 1398"},{"stop_lat":53.3251428006,"stop_lon":-6.3054327031,"address":"Monasterboice Road","id":"stop 1399"},{"stop_lat":53.3253968159,"stop_lon":-6.2986519848,"address":"Clogher Road","id":"stop 1401"},{"stop_lat":53.3259879311,"stop_lon":-6.2959862197,"address":"Pearse College","id":"stop 1402"},{"stop_lat":53.3271540649,"stop_lon":-6.2895441334,"address":"Rutland Avenue","id":"stop 1403"},{"stop_lat":53.3282005181,"stop_lon":-6.2866797205,"address":"Aughavanagh Road","id":"stop 1404"},{"stop_lat":53.3298216746,"stop_lon":-6.2844076737,"address":"Parnell Road","id":"stop 1405"},{"stop_lat":53.3331529315,"stop_lon":-6.2916915268,"address":"Dolphin's Barn","id":"stop 1406"},{"stop_lat":53.3315385028,"stop_lon":-6.2944436769,"address":"Crumlin Road","id":"stop 1407"},{"stop_lat":53.3303667448,"stop_lon":-6.2973581556,"address":"Loreto College","id":"stop 1409"},{"stop_lat":53.3314169224,"stop_lon":-6.2997787307,"address":"Keeper Road","id":"stop 1410"},{"stop_lat":53.3320510264,"stop_lon":-6.3032820042,"address":"Brickfield Drive","id":"stop 1411"},{"stop_lat":53.3326816543,"stop_lon":-6.3059146427,"address":"Slievenamon Road","id":"stop 1412"},{"stop_lat":53.3334413912,"stop_lon":-6.3087824942,"address":"Brickfields Park","id":"stop 1413"},{"stop_lat":53.3333476065,"stop_lon":-6.3123148014,"address":"Benbulbin Road","id":"stop 1414"},{"stop_lat":53.3324432485,"stop_lon":-6.3163745209,"address":"Sperrin Road","id":"stop 1415"},{"stop_lat":53.3310322128,"stop_lon":-6.319568119,"address":"Lady Of Mercy School","id":"stop 1417"},{"stop_lat":53.3300297592,"stop_lon":-6.3230607701,"address":"Cooley Road","id":"stop 1418"},{"stop_lat":53.3277177272,"stop_lon":-6.3229112431,"address":"Brandon Road","id":"stop 1419"},{"stop_lat":53.324999489,"stop_lon":-6.3194449219,"address":"Crumlin Hospital","id":"stop 1423"},{"stop_lat":53.3256625126,"stop_lon":-6.3167466215,"address":"Crumlin Hospital","id":"stop 1424"},{"stop_lat":53.327013172,"stop_lon":-6.3181947535,"address":"Cooley Road","id":"stop 1425"},{"stop_lat":53.3292748788,"stop_lon":-6.3224297712,"address":"Curlew Road","id":"stop 1426"},{"stop_lat":53.3302711584,"stop_lon":-6.3223306194,"address":"Mourne Road","id":"stop 1427"},{"stop_lat":53.3313588786,"stop_lon":-6.319149884,"address":"Lady of Mercy School","id":"stop 1428"},{"stop_lat":53.3325932072,"stop_lon":-6.3161734193,"address":"Sperrin Road","id":"stop 1429"},{"stop_lat":53.3335737955,"stop_lon":-6.3111496865,"address":"Belbulbin Road","id":"stop 1430"},{"stop_lat":53.3334987403,"stop_lon":-6.3083898257,"address":"Brickfields Park","id":"stop 1432"},{"stop_lat":53.3325721532,"stop_lon":-6.305798862,"address":"Slievenamon Road","id":"stop 1433"},{"stop_lat":53.3319924476,"stop_lon":-6.3023233792,"address":"Keeper Road","id":"stop 1434"},{"stop_lat":53.3313880463,"stop_lon":-6.2990141325,"address":"Keeper Road","id":"stop 1435"},{"stop_lat":53.3308849577,"stop_lon":-6.2965117199,"address":"Herberton Road","id":"stop 1436"},{"stop_lat":53.3363829769,"stop_lon":-6.2794141362,"address":"St Thomas Road","id":"stop 1438"},{"stop_lat":53.3340584157,"stop_lon":-6.2827660992,"address":"Rutledge Terrace","id":"stop 1439"},{"stop_lat":53.3319900594,"stop_lon":-6.2833146522,"address":"Donore Avenue","id":"stop 1440"},{"stop_lat":53.324874901,"stop_lon":-6.3030263332,"address":"Bangor Road","id":"stop 1441"},{"stop_lat":53.3251668742,"stop_lon":-6.3071281548,"address":"Clonard Road","id":"stop 1442"},{"stop_lat":53.3451293907,"stop_lon":-6.2695395586,"address":"Civic Offices","id":"stop 1443"},{"stop_lat":53.3450180038,"stop_lon":-6.2742601909,"address":"Merchant's Quay","id":"stop 1444"},{"stop_lat":53.3456784103,"stop_lon":-6.2782888396,"address":"Usher's Quay","id":"stop 1445"},{"stop_lat":53.3466296445,"stop_lon":-6.2881787496,"address":"Victoria Quay","id":"stop 1447"},{"stop_lat":53.34815283,"stop_lon":-6.2978960947,"address":"Phoenix Park Gate","id":"stop 1449"},{"stop_lat":53.3481554042,"stop_lon":-6.3018614131,"address":"Conyngham Road","id":"stop 1450"},{"stop_lat":53.3482782789,"stop_lon":-6.305446445,"address":"Bridgewater House","id":"stop 1451"},{"stop_lat":53.3454209055,"stop_lon":-6.3080379994,"address":"Islandbridge","id":"stop 1452"},{"stop_lat":53.3345361692,"stop_lon":-6.3067571014,"address":"Galtymore Road","id":"stop 1453"},{"stop_lat":53.337775553,"stop_lon":-6.3076499103,"address":"Suir Road Luas","id":"stop 1454"},{"stop_lat":53.3353851151,"stop_lon":-6.3057774603,"address":"Slievenamon Road","id":"stop 1455"},{"stop_lat":53.3348733091,"stop_lon":-6.3089811069,"address":"Good Counsel GAA","id":"stop 1456"},{"stop_lat":53.3353026587,"stop_lon":-6.3126430383,"address":"Benbulbin Road","id":"stop 1457"},{"stop_lat":53.3347706199,"stop_lon":-6.3169735748,"address":"Davitt House","id":"stop 1458"},{"stop_lat":53.3340633154,"stop_lon":-6.3197192372,"address":"Drimnagh CU","id":"stop 1459"},{"stop_lat":53.3323561008,"stop_lon":-6.3210325842,"address":"Carrow Road","id":"stop 1460"},{"stop_lat":53.3304629316,"stop_lon":-6.3238245198,"address":"Galtymore Park","id":"stop 1462"},{"stop_lat":53.3306239949,"stop_lon":-6.3237731617,"address":"Galtymore Road","id":"stop 1463"},{"stop_lat":53.3348988015,"stop_lon":-6.3165030367,"address":"Davitt House","id":"stop 1464"},{"stop_lat":53.3347967645,"stop_lon":-6.3086537872,"address":"Good Counsel GAA","id":"stop 1465"},{"stop_lat":53.3345289258,"stop_lon":-6.3062468536,"address":"Galtymore Drive","id":"stop 1466"},{"stop_lat":53.335657376,"stop_lon":-6.3059618779,"address":"Slievenamon Road","id":"stop 1467"},{"stop_lat":53.3375666016,"stop_lon":-6.3074929995,"address":"Suir Road Luas","id":"stop 1468"},{"stop_lat":53.3352591593,"stop_lon":-6.3133805382,"address":"Benbulbin Road","id":"stop 1469"},{"stop_lat":53.3455323202,"stop_lon":-6.3082889205,"address":"Islandbridge","id":"stop 1471"},{"stop_lat":53.348429468,"stop_lon":-6.3059661697,"address":"Conyngham Road","id":"stop 1472"},{"stop_lat":53.3483059785,"stop_lon":-6.298550899,"address":"Phoenix Park Gate","id":"stop 1473"},{"stop_lat":53.347947916,"stop_lon":-6.2923617046,"address":"Parkgate Street","id":"stop 1474"},{"stop_lat":53.3470736856,"stop_lon":-6.2846762754,"address":"Sarsfield Quay","id":"stop 1476"},{"stop_lat":53.3456460889,"stop_lon":-6.2729431267,"address":"Four Courts","id":"stop 1478"},{"stop_lat":53.34591596,"stop_lon":-6.2692373442,"address":"Ormond Quay Upper","id":"stop 1479"},{"stop_lat":53.3457659647,"stop_lon":-6.2706702977,"address":"Ormond Quay Upper","id":"stop 1480"},{"stop_lat":53.3650538686,"stop_lon":-6.2398960972,"address":"Melrose Avenue","id":"stop 1481"},{"stop_lat":53.3717085782,"stop_lon":-6.2364806456,"address":"Marino Institute","id":"stop 1482"},{"stop_lat":53.3636977091,"stop_lon":-6.2399670293,"address":"Philipsburgh Avenue","id":"stop 1484"},{"stop_lat":53.3640458177,"stop_lon":-6.2398024169,"address":"Philipsburgh Avenue","id":"stop 1485"},{"stop_lat":53.3709747783,"stop_lon":-6.238524809,"address":"Morrogh Terrace","id":"stop 1486"},{"stop_lat":53.3718192549,"stop_lon":-6.23667145,"address":"Marino Institute","id":"stop 1487"},{"stop_lat":53.3710888554,"stop_lon":-6.2346877702,"address":"Turlogh Parade","id":"stop 1488"},{"stop_lat":53.3701586652,"stop_lon":-6.2319610076,"address":"Marino Church","id":"stop 1489"},{"stop_lat":53.3688768217,"stop_lon":-6.2285576617,"address":"\u00c1rd Scoil R\u00eds","id":"stop 1490"},{"stop_lat":53.3684677619,"stop_lon":-6.2276429098,"address":"Griffith Avenue","id":"stop 1491"},{"stop_lat":53.3702573904,"stop_lon":-6.2325580572,"address":"Marino Church","id":"stop 1492"},{"stop_lat":53.3712134045,"stop_lon":-6.2352086272,"address":"Turlogh Parade","id":"stop 1493"},{"stop_lat":53.3706730149,"stop_lon":-6.2357419416,"address":"Croydon Park","id":"stop 1494"},{"stop_lat":53.3687559406,"stop_lon":-6.2355656974,"address":"Croydon Park Avenue","id":"stop 1495"},{"stop_lat":53.3671481166,"stop_lon":-6.2338138383,"address":"Marino Green","id":"stop 1496"},{"stop_lat":53.3657794887,"stop_lon":-6.2372965868,"address":"Brian Road","id":"stop 1499"},{"stop_lat":53.3510395889,"stop_lon":-6.2501625778,"address":"Connolly","id":"stop 1500"},{"stop_lat":53.3540289632,"stop_lon":-6.2578969849,"address":"Parnell Street","id":"stop 1505"},{"stop_lat":53.3667778214,"stop_lon":-6.2723739092,"address":"Finglas Road","id":"stop 1506"},{"stop_lat":53.3683905203,"stop_lon":-6.2745026916,"address":"St Vincent's School","id":"stop 1507"},{"stop_lat":53.3699109023,"stop_lon":-6.2783335512,"address":"Glasnevin Cemetery","id":"stop 1508"},{"stop_lat":53.372925834,"stop_lon":-6.2842236605,"address":"Slaney Road","id":"stop 1509"},{"stop_lat":53.3769069295,"stop_lon":-6.2873102372,"address":"Ballyboggan Road","id":"stop 1510"},{"stop_lat":53.3782345232,"stop_lon":-6.2877529846,"address":"Tolka Vale","id":"stop 1511"},{"stop_lat":53.3821743223,"stop_lon":-6.2917288355,"address":"Prospect Hill","id":"stop 1512"},{"stop_lat":53.3894651562,"stop_lon":-6.3000219145,"address":"Drogheda Mall","id":"stop 1514"},{"stop_lat":53.3661143161,"stop_lon":-6.2331954182,"address":"Marino Park","id":"stop 1515"},{"stop_lat":53.3906003885,"stop_lon":-6.3116141241,"address":"Kildonan Road","id":"stop 1518"},{"stop_lat":53.3924448696,"stop_lon":-6.311751618,"address":"Kildonan Park","id":"stop 1519"},{"stop_lat":53.3939201989,"stop_lon":-6.3118435866,"address":"Barry Road","id":"stop 1520"},{"stop_lat":53.3972212993,"stop_lon":-6.3107504941,"address":"Plunkett Green","id":"stop 1521"},{"stop_lat":53.3978788506,"stop_lon":-6.3095815571,"address":"Plunkett Avenue","id":"stop 1523"},{"stop_lat":53.3955562649,"stop_lon":-6.3105908871,"address":"Barry Road","id":"stop 1524"},{"stop_lat":53.3940692958,"stop_lon":-6.3115820616,"address":"Casement Drive","id":"stop 1525"},{"stop_lat":53.392306937,"stop_lon":-6.3115315366,"address":"Kildonan Park","id":"stop 1526"},{"stop_lat":53.3561954282,"stop_lon":-6.2940000257,"address":"St David's Terrace","id":"stop 1528"},{"stop_lat":53.3884588269,"stop_lon":-6.2981526069,"address":"Finglas Village","id":"stop 1529"},{"stop_lat":53.383743664,"stop_lon":-6.2933647409,"address":"Clearwater SC","id":"stop 1531"},{"stop_lat":53.3817441172,"stop_lon":-6.2905585009,"address":"Prospect Hill","id":"stop 1532"},{"stop_lat":53.3789678848,"stop_lon":-6.287498088,"address":"Tolka Vale","id":"stop 1533"},{"stop_lat":53.3753328392,"stop_lon":-6.2859756029,"address":"Ballyboggan Road","id":"stop 1534"},{"stop_lat":53.3723059581,"stop_lon":-6.2823699439,"address":"The Willows","id":"stop 1535"},{"stop_lat":53.3695033972,"stop_lon":-6.2768772328,"address":"Glasnevin Cemetery","id":"stop 1536"},{"stop_lat":53.368066205,"stop_lon":-6.2732083989,"address":"St Vincent's School","id":"stop 1537"},{"stop_lat":53.3844741413,"stop_lon":-6.2947937549,"address":"Clearwater SC","id":"stop 1538"},{"stop_lat":53.3831357991,"stop_lon":-6.2791980157,"address":"Glasanaon Road","id":"stop 1539"},{"stop_lat":53.38434031,"stop_lon":-6.2842006288,"address":"Johnstown Park","id":"stop 1540"},{"stop_lat":53.3952411658,"stop_lon":-6.3016863664,"address":"McKee Avenue Est","id":"stop 1547"},{"stop_lat":53.396110145,"stop_lon":-6.3027494933,"address":"Kylemore Bakery","id":"stop 1548"},{"stop_lat":53.3974326561,"stop_lon":-6.3066367831,"address":"Plunkett Road","id":"stop 1549"},{"stop_lat":53.399817511,"stop_lon":-6.3030530945,"address":"McKelvey Avenue","id":"stop 1558"},{"stop_lat":53.3973411213,"stop_lon":-6.306520115,"address":"Plunkett Road","id":"stop 1559"},{"stop_lat":53.3970075424,"stop_lon":-6.3045483815,"address":"St Margaret's Road","id":"stop 1560"},{"stop_lat":53.3844074206,"stop_lon":-6.2838671966,"address":"Johnstown Park","id":"stop 1566"},{"stop_lat":53.384013957,"stop_lon":-6.2802600218,"address":"Griffith Drive","id":"stop 1567"},{"stop_lat":53.3840241647,"stop_lon":-6.3124606624,"address":"Wellmount Drive","id":"stop 1573"},{"stop_lat":53.385593998,"stop_lon":-6.3128796471,"address":"Cardiffsbridge SC","id":"stop 1574"},{"stop_lat":53.3870661426,"stop_lon":-6.312746258,"address":"Col\u00e1iste \u00cdde","id":"stop 1575"},{"stop_lat":53.3893174055,"stop_lon":-6.3130481247,"address":"Cappagh Road","id":"stop 1576"},{"stop_lat":53.3898858081,"stop_lon":-6.3157470169,"address":"Abbottstown Road","id":"stop 1577"},{"stop_lat":53.3903851295,"stop_lon":-6.3180126774,"address":"Ratoath Drive","id":"stop 1578"},{"stop_lat":53.3935215772,"stop_lon":-6.3237381766,"address":"Cappagh Hospital","id":"stop 1579"},{"stop_lat":53.3927698846,"stop_lon":-6.3220535923,"address":"Cappagh Road","id":"stop 1582"},{"stop_lat":53.38988546,"stop_lon":-6.3150854821,"address":"Abbottstown Road","id":"stop 1584"},{"stop_lat":53.3887680197,"stop_lon":-6.3123331449,"address":"Cardiffsbridge Road","id":"stop 1585"},{"stop_lat":53.3865250406,"stop_lon":-6.3126173181,"address":"Col\u00e1iste \u00cdde","id":"stop 1586"},{"stop_lat":53.3834664303,"stop_lon":-6.3117912065,"address":"Wellmount Drive","id":"stop 1587"},{"stop_lat":53.3871387919,"stop_lon":-6.2994982132,"address":"Wellmount Road","id":"stop 1591"},{"stop_lat":53.3797209189,"stop_lon":-6.2892416052,"address":"Tolka Valley Road","id":"stop 1592"},{"stop_lat":53.3789147734,"stop_lon":-6.2944597494,"address":"Tolka Valley Park","id":"stop 1593"},{"stop_lat":53.3807131944,"stop_lon":-6.2976648452,"address":"St Helena's Road","id":"stop 1594"},{"stop_lat":53.3807395003,"stop_lon":-6.2976186997,"address":"St Helena's Drive","id":"stop 1595"},{"stop_lat":53.3830410953,"stop_lon":-6.3008190573,"address":"St Malachy's NS","id":"stop 1596"},{"stop_lat":53.3804552156,"stop_lon":-6.309234666,"address":"Valeview Gardens","id":"stop 1597"},{"stop_lat":53.380242178,"stop_lon":-6.3056204401,"address":"Valeview Drive","id":"stop 1598"},{"stop_lat":53.3808997507,"stop_lon":-6.3107954162,"address":"Cardiffsbridge Road","id":"stop 1599"},{"stop_lat":53.3835970179,"stop_lon":-6.3127631835,"address":"Deanstown Avenue","id":"stop 1600"},{"stop_lat":53.3837454771,"stop_lon":-6.3162750422,"address":"Rathvilly Road","id":"stop 1604"},{"stop_lat":53.3803706836,"stop_lon":-6.3064420898,"address":"St Helena's Road","id":"stop 1606"},{"stop_lat":53.3821613835,"stop_lon":-6.3034246475,"address":"Dunsink Drive","id":"stop 1607"},{"stop_lat":53.3830498569,"stop_lon":-6.2995409187,"address":"St Malachy's NS","id":"stop 1608"},{"stop_lat":53.3803842381,"stop_lon":-6.2972871396,"address":"Cloonlara","id":"stop 1609"},{"stop_lat":53.3788077073,"stop_lon":-6.2964030707,"address":"Tolka Valley Park","id":"stop 1610"},{"stop_lat":53.3512573878,"stop_lon":-6.2737527636,"address":"Church Street Upper","id":"stop 1614"},{"stop_lat":53.3478271654,"stop_lon":-6.2745973323,"address":"Church Street","id":"stop 1615"},{"stop_lat":53.3472850723,"stop_lon":-6.275024773,"address":"St Michan's Church","id":"stop 1616"},{"stop_lat":53.349331208,"stop_lon":-6.2748069643,"address":"Capuchin Church","id":"stop 1617"},{"stop_lat":53.3508870581,"stop_lon":-6.2742484187,"address":"Church Street Upper","id":"stop 1618"},{"stop_lat":53.352912695,"stop_lon":-6.2732351987,"address":"Constitution Hill","id":"stop 1619"},{"stop_lat":53.3832628573,"stop_lon":-6.2441059127,"address":"Whitehall Church","id":"stop 1620"},{"stop_lat":53.3865272844,"stop_lon":-6.2423929665,"address":"Ellenfield Park","id":"stop 1641"},{"stop_lat":53.3839478893,"stop_lon":-6.2436267223,"address":"Whitehall Church","id":"stop 1642"},{"stop_lat":53.3848022174,"stop_lon":-6.2510030954,"address":"St Aidan's School","id":"stop 1643"},{"stop_lat":53.3483510636,"stop_lon":-6.2822517262,"address":"Blackhall Place","id":"stop 1647"},{"stop_lat":53.3510913675,"stop_lon":-6.2828024851,"address":"Stoneybatter","id":"stop 1648"},{"stop_lat":53.352570135,"stop_lon":-6.2843804485,"address":"Manor Street","id":"stop 1649"},{"stop_lat":53.3561451797,"stop_lon":-6.29425743,"address":"St David's Terrace","id":"stop 1654"},{"stop_lat":53.3567321718,"stop_lon":-6.2969682741,"address":"Blackhorse Avenue","id":"stop 1655"},{"stop_lat":53.357297279,"stop_lon":-6.2987786377,"address":"McKee Park","id":"stop 1656"},{"stop_lat":53.3583921081,"stop_lon":-6.3030769992,"address":"Dunard Walk","id":"stop 1657"},{"stop_lat":53.3619888217,"stop_lon":-6.3095151879,"address":"Skreen Road","id":"stop 1658"},{"stop_lat":53.3632599651,"stop_lon":-6.304716699,"address":"Croaghpatrick Road","id":"stop 1659"},{"stop_lat":53.3651865518,"stop_lon":-6.3093735531,"address":"Cabra Garda Station","id":"stop 1660"},{"stop_lat":53.3664436172,"stop_lon":-6.3130955378,"address":"Our Lady's Church","id":"stop 1661"},{"stop_lat":53.3675406917,"stop_lon":-6.31759044,"address":"Baggot Road","id":"stop 1662"},{"stop_lat":53.369408518,"stop_lon":-6.3238586305,"address":"Ashtown Grove","id":"stop 1664"},{"stop_lat":53.3706578378,"stop_lon":-6.32770193,"address":"Kempton","id":"stop 1665"},{"stop_lat":53.3715971506,"stop_lon":-6.3305957311,"address":"Ashtown Roundabout","id":"stop 1666"},{"stop_lat":53.370869767,"stop_lon":-6.3345015195,"address":"Castleknock Road","id":"stop 1667"},{"stop_lat":53.3708427404,"stop_lon":-6.3403035502,"address":"Old Race Course","id":"stop 1668"},{"stop_lat":53.3710173889,"stop_lon":-6.3399360759,"address":"Old Race Course","id":"stop 1694"},{"stop_lat":53.3710101424,"stop_lon":-6.3342555865,"address":"Ashtown Gate","id":"stop 1695"},{"stop_lat":53.3715415173,"stop_lon":-6.3298314433,"address":"Ashtown Roundabout","id":"stop 1696"},{"stop_lat":53.3708011457,"stop_lon":-6.3276662589,"address":"Kempton","id":"stop 1697"},{"stop_lat":53.3695772972,"stop_lon":-6.3237167513,"address":"Ashtown Grove","id":"stop 1698"},{"stop_lat":53.3687436057,"stop_lon":-6.3213149954,"address":"Baggot Road","id":"stop 1699"},{"stop_lat":53.3677088281,"stop_lon":-6.3174034855,"address":"Baggot Road","id":"stop 1700"},{"stop_lat":53.3665672561,"stop_lon":-6.3129403827,"address":"Our Lady's Church","id":"stop 1701"},{"stop_lat":53.3656108302,"stop_lon":-6.3101381386,"address":"Navan Road Church","id":"stop 1702"},{"stop_lat":53.364735399,"stop_lon":-6.3073478338,"address":"Cabra Garda Station","id":"stop 1703"},{"stop_lat":53.3630522662,"stop_lon":-6.3052808987,"address":"Skreen Road","id":"stop 1704"},{"stop_lat":53.3621807472,"stop_lon":-6.3084708337,"address":"Ardpatrick Road","id":"stop 1705"},{"stop_lat":53.3600698256,"stop_lon":-6.3072923753,"address":"Blackhorse Avenue","id":"stop 1706"},{"stop_lat":53.3584282664,"stop_lon":-6.3024595727,"address":"Dunard Walk","id":"stop 1707"},{"stop_lat":53.3573323545,"stop_lon":-6.2987171455,"address":"Mc Kee Park","id":"stop 1708"},{"stop_lat":53.3568682017,"stop_lon":-6.2970529914,"address":"Glenbeigh Avenue","id":"stop 1709"},{"stop_lat":53.355569904,"stop_lon":-6.2917414915,"address":"Aughrim Street","id":"stop 1710"},{"stop_lat":53.3545779755,"stop_lon":-6.2896329016,"address":"Holy Family Church","id":"stop 1711"},{"stop_lat":53.353333917,"stop_lon":-6.2862425918,"address":"Aughrim Court","id":"stop 1712"},{"stop_lat":53.35190782,"stop_lon":-6.2833254735,"address":"Manor Street","id":"stop 1713"},{"stop_lat":53.3506378069,"stop_lon":-6.281889388,"address":"Stoneybatter","id":"stop 1714"},{"stop_lat":53.3477119822,"stop_lon":-6.2821872995,"address":"Blackhall Place","id":"stop 1715"},{"stop_lat":53.3657153154,"stop_lon":-6.1744415895,"address":"Clontarf Road","id":"stop 1724"},{"stop_lat":53.3637602627,"stop_lon":-6.1770796569,"address":"Doyle's Lane","id":"stop 1725"},{"stop_lat":53.3622913897,"stop_lon":-6.1791858761,"address":"Dollymount Park","id":"stop 1726"},{"stop_lat":53.3604468637,"stop_lon":-6.1831860896,"address":"Bull Island","id":"stop 1727"},{"stop_lat":53.3596562744,"stop_lon":-6.1861645963,"address":"Wooden Bridge","id":"stop 1728"},{"stop_lat":53.3584969058,"stop_lon":-6.1903155097,"address":"Clontarf Bus Garage","id":"stop 1729"},{"stop_lat":53.3582310907,"stop_lon":-6.1941279289,"address":"Vernon Court","id":"stop 1730"},{"stop_lat":53.3590767534,"stop_lon":-6.1965562043,"address":"John the Baptist Ch","id":"stop 1731"},{"stop_lat":53.3600629108,"stop_lon":-6.2023442381,"address":"Oultan Road","id":"stop 1732"},{"stop_lat":53.3602126155,"stop_lon":-6.2063195598,"address":"Clontarf Baths","id":"stop 1733"},{"stop_lat":53.3603909611,"stop_lon":-6.2110149085,"address":"Castle Avenue","id":"stop 1734"},{"stop_lat":53.3611433271,"stop_lon":-6.2144392071,"address":"The Stiles Road","id":"stop 1735"},{"stop_lat":53.3621421816,"stop_lon":-6.2169217466,"address":"St Lawrence Road","id":"stop 1736"},{"stop_lat":53.3628580244,"stop_lon":-6.2197167209,"address":"Alfie Byrne Road","id":"stop 1737"},{"stop_lat":53.3634508756,"stop_lon":-6.2239143341,"address":"Clontarf Rd Pitches","id":"stop 1738"},{"stop_lat":53.3638851946,"stop_lon":-6.2265258592,"address":"Clontarf Station","id":"stop 1739"},{"stop_lat":53.3641416167,"stop_lon":-6.2268457873,"address":"Clontarf Road","id":"stop 1740"},{"stop_lat":53.3631169031,"stop_lon":-6.2208028235,"address":"Alfie Byrne Road","id":"stop 1741"},{"stop_lat":53.3621257933,"stop_lon":-6.2164265849,"address":"St Lawrence Road","id":"stop 1742"},{"stop_lat":53.3611356864,"stop_lon":-6.2139286665,"address":"The Court","id":"stop 1743"},{"stop_lat":53.3603486399,"stop_lon":-6.208792977,"address":"Scoil U\u00ed Chonaill","id":"stop 1744"},{"stop_lat":53.3603470797,"stop_lon":-6.205697885,"address":"Clontarf Baths","id":"stop 1745"},{"stop_lat":53.3602565191,"stop_lon":-6.2026666379,"address":"Oultan Road","id":"stop 1746"},{"stop_lat":53.3593509923,"stop_lon":-6.1968601415,"address":"John the Baptist Ch","id":"stop 1747"},{"stop_lat":53.3582570201,"stop_lon":-6.1934657618,"address":"Fortview Avenue","id":"stop 1748"},{"stop_lat":53.3585903734,"stop_lon":-6.1905519402,"address":"Clontarf Bus Garage","id":"stop 1749"},{"stop_lat":53.3688677027,"stop_lon":-6.1778083286,"address":"St Anne's Park","id":"stop 1750"},{"stop_lat":53.3598698763,"stop_lon":-6.185434327,"address":"Wooden Bridge","id":"stop 1751"},{"stop_lat":53.3611275917,"stop_lon":-6.1818499186,"address":"Bull Island","id":"stop 1752"},{"stop_lat":53.3627239628,"stop_lon":-6.1786715732,"address":"Dollymount Park","id":"stop 1753"},{"stop_lat":53.3641156565,"stop_lon":-6.1768090336,"address":"Doyle's Lane","id":"stop 1754"},{"stop_lat":53.366429977,"stop_lon":-6.1871240752,"address":"Seapark","id":"stop 1755"},{"stop_lat":53.367209908,"stop_lon":-6.1828531986,"address":"Dollymount Avenue","id":"stop 1756"},{"stop_lat":53.3686296419,"stop_lon":-6.1822367276,"address":"Park Lawn","id":"stop 1757"},{"stop_lat":53.3681296759,"stop_lon":-6.1753902923,"address":"Mount Prospect Ave","id":"stop 1758"},{"stop_lat":53.3660002227,"stop_lon":-6.1742641084,"address":"The Oaks","id":"stop 1759"},{"stop_lat":53.3659722447,"stop_lon":-6.1877596219,"address":"Seapark Road","id":"stop 1760"},{"stop_lat":53.3638373979,"stop_lon":-6.1880455799,"address":"Seafield Road Junc","id":"stop 1761"},{"stop_lat":53.3637511874,"stop_lon":-6.1912498354,"address":"Seafield Road","id":"stop 1762"},{"stop_lat":53.3644067789,"stop_lon":-6.1953693753,"address":"Vernon Avenue","id":"stop 1763"},{"stop_lat":53.3658929687,"stop_lon":-6.1955770404,"address":"Blackheath Park","id":"stop 1764"},{"stop_lat":53.3665514241,"stop_lon":-6.2022814137,"address":"Blackheath Grove","id":"stop 1765"},{"stop_lat":53.3638273181,"stop_lon":-6.2052210532,"address":"Clontarf Castle","id":"stop 1767"},{"stop_lat":53.3688857836,"stop_lon":-6.1819402865,"address":"Park Lawn","id":"stop 1769"},{"stop_lat":53.3670834688,"stop_lon":-6.1828134982,"address":"Dollymount Avenue","id":"stop 1770"},{"stop_lat":53.3660419203,"stop_lon":-6.1852471402,"address":"St Gabriel's Road","id":"stop 1771"},{"stop_lat":53.3650107475,"stop_lon":-6.2050210377,"address":"Clontarf Cemetery","id":"stop 1772"},{"stop_lat":53.3668109134,"stop_lon":-6.2033975358,"address":"Blackheath Park","id":"stop 1773"},{"stop_lat":53.3661362371,"stop_lon":-6.1974000647,"address":"Blackheath Avenue","id":"stop 1774"},{"stop_lat":53.3644399833,"stop_lon":-6.1951876537,"address":"Vernon Avenue","id":"stop 1775"},{"stop_lat":53.3638160054,"stop_lon":-6.1919683516,"address":"Seafield Road","id":"stop 1776"},{"stop_lat":53.3653120792,"stop_lon":-6.191048466,"address":"Seafield Avenue","id":"stop 1777"},{"stop_lat":53.3666136881,"stop_lon":-6.1891599852,"address":"Mount Prospect Ave","id":"stop 1778"},{"stop_lat":53.3823894993,"stop_lon":-6.1981716507,"address":"Brookwood Grove","id":"stop 1782"},{"stop_lat":53.3838032159,"stop_lon":-6.1959621817,"address":"McAuley Road","id":"stop 1783"},{"stop_lat":53.3846209813,"stop_lon":-6.1929810134,"address":"Gorsefield Court","id":"stop 1784"},{"stop_lat":53.3825960633,"stop_lon":-6.1916236149,"address":"McAuley Park","id":"stop 1785"},