[{"lat":53.3522443611,"lng":-6.2637232189,"fullname":"Parnell Square West","stopid":"2"},{"lat":53.3523085514,"lng":-6.2638107422,"fullname":"Parnell Square West","stopid":"3"},{"lat":53.3525745132,"lng":-6.264175486,"fullname":"Parnell Square West","stopid":"4"},{"lat":53.3527493357,"lng":-6.264453804,"fullname":"Parnell Square West","stopid":"6"},{"lat":53.3528409106,"lng":-6.2645702612,"fullname":"Parnell Square West","stopid":"7"},{"lat":53.3532722715,"lng":-6.2651836766,"fullname":"Parnell Square West","stopid":"8"},{"lat":53.3533921036,"lng":-6.2653891239,"fullname":"Parnell Square West","stopid":"10"},{"lat":53.3568152335,"lng":-6.2646791951,"fullname":"St Joseph's Parade","stopid":"11"},{"lat":53.3571075162,"lng":-6.2643818673,"fullname":"Upper Dorset Street","stopid":"12"},{"lat":53.3585312379,"lng":-6.2627765057,"fullname":"Dorset Street Lower","stopid":"14"},{"lat":53.3602667076,"lng":-6.2609780427,"fullname":"Innisfallen Parade","stopid":"15"},{"lat":53.3663915571,"lng":-6.3056141835,"fullname":"Nephin Road Park","stopid":"16"},{"lat":53.3630783244,"lng":-6.2583992885,"fullname":"Drumcondra Rail Stn","stopid":"17"},{"lat":53.3658559259,"lng":-6.2559568207,"fullname":"Dargle Road","stopid":"18"},{"lat":53.3672348759,"lng":-6.255599941,"fullname":"Botanic Avenue","stopid":"19"},{"lat":53.3701011993,"lng":-6.254310599,"fullname":"DCU St Patrick's","stopid":"21"},{"lat":53.3735036097,"lng":-6.2528037527,"fullname":"Home Farm Road","stopid":"22"},{"lat":53.3742282801,"lng":-6.2562610042,"fullname":"Ferguson Road","stopid":"23"},{"lat":53.3751331589,"lng":-6.2603723481,"fullname":"Walsh Road","stopid":"24"},{"lat":53.3758994661,"lng":-6.2636177364,"fullname":"Rathlin Road","stopid":"25"},{"lat":53.37943896,"lng":-6.2665852613,"fullname":"Ballymun Road","stopid":"27"},{"lat":53.3815786376,"lng":-6.2660022708,"fullname":"Hampstead Avenue","stopid":"28"},{"lat":53.3834882529,"lng":-6.2656691013,"fullname":"Albert College Park","stopid":"29"},{"lat":53.3703319002,"lng":-6.3046011692,"fullname":"Ventry Park","stopid":"30"},{"lat":53.3860332259,"lng":-6.2688580773,"fullname":"St Pappin's Road","stopid":"31"},{"lat":53.3861955681,"lng":-6.271377201,"fullname":"Stormanstown Road","stopid":"32"},{"lat":53.3887179243,"lng":-6.2717711412,"fullname":"Glasnevin Drive","stopid":"33"},{"lat":53.3862067871,"lng":-6.2709106925,"fullname":"Dean Swift Road","stopid":"35"},{"lat":53.3861268504,"lng":-6.2678770698,"fullname":"Maolbuille Road","stopid":"36"},{"lat":53.3853464012,"lng":-6.2648869813,"fullname":"DCU Ballymun Road","stopid":"37"},{"lat":53.3822365942,"lng":-6.2655095212,"fullname":"Hampstead Avenue","stopid":"38"},{"lat":53.3804141869,"lng":-6.2656587591,"fullname":"The Rise","stopid":"39"},{"lat":53.3766607655,"lng":-6.2646689685,"fullname":"Stella Avenue","stopid":"40"},{"lat":53.3755592683,"lng":-6.2618580062,"fullname":"Home Farm Road","stopid":"41"},{"lat":53.3746502735,"lng":-6.2574611897,"fullname":"Corpus Christi NS","stopid":"42"},{"lat":53.3738612202,"lng":-6.2539013104,"fullname":"Achill Road","stopid":"43"},{"lat":53.3730174091,"lng":-6.2521323032,"fullname":"Skylon Hotel","stopid":"44"},{"lat":53.3699364344,"lng":-6.2541069408,"fullname":"DCU St Patrick's","stopid":"45"},{"lat":53.3671310162,"lng":-6.2552585566,"fullname":"Botanic Avenue","stopid":"46"},{"lat":53.363916119,"lng":-6.2572982565,"fullname":"Drumcondra Rail Stn","stopid":"47"},{"lat":53.3622573901,"lng":-6.2588084123,"fullname":"Fitzroy Avenue","stopid":"48"},{"lat":53.3600042379,"lng":-6.2608535083,"fullname":"Dorset Street Lower","stopid":"49"},{"lat":53.3578104088,"lng":-6.2632715725,"fullname":"Temple Street","stopid":"51"},{"lat":53.3566607792,"lng":-6.264565282,"fullname":"Dorset Street Upper","stopid":"52"},{"lat":53.3600144884,"lng":-6.2627912891,"fullname":"North Circular Road","stopid":"53"},{"lat":53.3602216081,"lng":-6.265908034,"fullname":"Mater Hospital","stopid":"54"},{"lat":53.3604116029,"lng":-6.2684695798,"fullname":"Mountjoy","stopid":"55"},{"lat":53.3607597246,"lng":-6.2763736549,"fullname":"Dalymount","stopid":"56"},{"lat":53.3608162243,"lng":-6.2765516748,"fullname":"Dalymount","stopid":"57"},{"lat":53.3609462459,"lng":-6.2812042025,"fullname":"Churchview Home","stopid":"58"},{"lat":53.3610180102,"lng":-6.2849425631,"fullname":"Annamoe Terrace","stopid":"59"},{"lat":53.3612792197,"lng":-6.2893645001,"fullname":"Quarry Road","stopid":"60"},{"lat":53.3667924373,"lng":-6.2927501081,"fullname":"Faussaugh Avenue","stopid":"63"},{"lat":53.3670885821,"lng":-6.2952327822,"fullname":"Faussaugh Ave Church","stopid":"64"},{"lat":53.3672546442,"lng":-6.2980512764,"fullname":"Dingle Road","stopid":"65"},{"lat":53.3672749884,"lng":-6.3007403455,"fullname":"Broombridge Road","stopid":"66"},{"lat":53.369077508,"lng":-6.3042452347,"fullname":"Ventry Drive","stopid":"68"},{"lat":53.3713925641,"lng":-6.3033417169,"fullname":"Carnlough Road","stopid":"69"},{"lat":53.3702576893,"lng":-6.3044388053,"fullname":"Ventry Park","stopid":"71"},{"lat":53.368969926,"lng":-6.304264536,"fullname":"Ventry Drive","stopid":"72"},{"lat":53.3673915527,"lng":-6.3007206787,"fullname":"Faussagh Avenue","stopid":"73"},{"lat":53.3672002386,"lng":-6.295498814,"fullname":"Faussaugh Ave Church","stopid":"74"},{"lat":53.3665472299,"lng":-6.2913173194,"fullname":"Fionnbarra GAA","stopid":"75"},{"lat":53.3613091819,"lng":-6.2895736523,"fullname":"Quarry Road","stopid":"77"},{"lat":53.3611492152,"lng":-6.2840658353,"fullname":"Annamoe Terrace","stopid":"78"},{"lat":53.361021251,"lng":-6.2807955056,"fullname":"Churchview Home","stopid":"79"},{"lat":53.3608629633,"lng":-6.2760539615,"fullname":"Phibsborough PO","stopid":"80"},{"lat":53.3608757479,"lng":-6.2719666269,"fullname":"Phibsborough","stopid":"81"},{"lat":53.3607977959,"lng":-6.2715490802,"fullname":"Phibsborough","stopid":"82"},{"lat":53.3602792498,"lng":-6.2655450962,"fullname":"Mater Hospital","stopid":"83"},{"lat":53.3601625616,"lng":-6.2637017806,"fullname":"Leo Street","stopid":"84"},{"lat":53.3739579526,"lng":-6.2519134297,"fullname":"Wellpark Avenue","stopid":"85"},{"lat":53.3760502205,"lng":-6.2511663907,"fullname":"Home Farm FC","stopid":"86"},{"lat":53.3767517256,"lng":-6.2548802899,"fullname":"Clare Road","stopid":"87"},{"lat":53.3772872553,"lng":-6.2576992286,"fullname":"Walnut Rise","stopid":"88"},{"lat":53.3863855317,"lng":-6.2652656728,"fullname":"Albert College Court","stopid":"90"},{"lat":53.3884278897,"lng":-6.2654081421,"fullname":"Ballymun Road NS","stopid":"91"},{"lat":53.3898373341,"lng":-6.2646742404,"fullname":"Ballymun Library","stopid":"92"},{"lat":53.3923014678,"lng":-6.2641529756,"fullname":"Gateway Avenue","stopid":"93"},{"lat":53.3960347624,"lng":-6.26437696,"fullname":"Civic Centre","stopid":"94"},{"lat":53.3977730702,"lng":-6.267719857,"fullname":"Balbutcher Lane","stopid":"102"},{"lat":53.3997562075,"lng":-6.276812945,"fullname":"Poppintree Parade","stopid":"104"},{"lat":53.4029363967,"lng":-6.2816926965,"fullname":"Belclare Park","stopid":"105"},{"lat":53.4020356254,"lng":-6.2796836182,"fullname":"Crannogue Road","stopid":"107"},{"lat":53.397938641,"lng":-6.2686003815,"fullname":"\u00c1rd Na Meala","stopid":"110"},{"lat":53.3961544015,"lng":-6.2639510403,"fullname":"Civic Centre","stopid":"112"},{"lat":53.3922679629,"lng":-6.2637032546,"fullname":"Trinity Comp School","stopid":"113"},{"lat":53.3913333221,"lng":-6.2637112293,"fullname":"Ballymun Road","stopid":"114"},{"lat":53.387964092,"lng":-6.2650361005,"fullname":"Ballymun Road Church","stopid":"115"},{"lat":53.3776934606,"lng":-6.2596667399,"fullname":"Griffith Lawns","stopid":"116"},{"lat":53.3773659067,"lng":-6.2575457085,"fullname":"Walnut Rise","stopid":"117"},{"lat":53.3766430017,"lng":-6.2535920986,"fullname":"Clare Road","stopid":"118"},{"lat":53.3751904807,"lng":-6.2507657453,"fullname":"The Village","stopid":"119"},{"lat":53.3990954667,"lng":-6.2640869606,"fullname":"Nursing Home","stopid":"126"},{"lat":53.3991075305,"lng":-6.2636804282,"fullname":"Nursing Home","stopid":"127"},{"lat":53.3898903154,"lng":-6.2714229361,"fullname":"Glasnevin Drive","stopid":"129"},{"lat":53.3900920128,"lng":-6.2741812694,"fullname":"Glasnevin Park","stopid":"130"},{"lat":53.3903858903,"lng":-6.278349237,"fullname":"Willow Park Road","stopid":"131"},{"lat":53.3907969276,"lng":-6.2863015095,"fullname":"Grove Park Road","stopid":"133"},{"lat":53.3930945913,"lng":-6.2860738654,"fullname":"Sycamore Road","stopid":"134"},{"lat":53.3943802014,"lng":-6.2898565965,"fullname":"McKee Road","stopid":"136"},{"lat":53.3923167196,"lng":-6.2926307948,"fullname":"Clancy Avenue","stopid":"137"},{"lat":53.3899950093,"lng":-6.2918065726,"fullname":"St Canice's BNS","stopid":"138"},{"lat":53.3904450851,"lng":-6.2780912447,"fullname":"Willow Park Road","stopid":"141"},{"lat":53.3901982853,"lng":-6.274071722,"fullname":"Glasnevin Park","stopid":"142"},{"lat":53.3898767084,"lng":-6.26924337,"fullname":"Willow Park Avenue","stopid":"143"},{"lat":53.3750401276,"lng":-6.2650955857,"fullname":"Na Fianna GAA Club","stopid":"146"},{"lat":53.3724802262,"lng":-6.2658308621,"fullname":"Tolka Bridge","stopid":"147"},{"lat":53.3706701663,"lng":-6.2680685071,"fullname":"Mobhi Road","stopid":"148"},{"lat":53.3731385873,"lng":-6.2659844661,"fullname":"Tolka Bridge","stopid":"149"},{"lat":53.3756588462,"lng":-6.264995283,"fullname":"Na Fianna GAA Club","stopid":"150"},{"lat":53.37195526,"lng":-6.2692938277,"fullname":"Botanic Gardens","stopid":"151"},{"lat":53.3756885056,"lng":-6.2701344395,"fullname":"Met Eireann","stopid":"153"},{"lat":53.3772589963,"lng":-6.2755570372,"fullname":"St Brigid's School","stopid":"154"},{"lat":53.3778742493,"lng":-6.2795755272,"fullname":"Old Finglas Road","stopid":"155"},{"lat":53.3786233901,"lng":-6.2816647391,"fullname":"Tolka Estate","stopid":"156"},{"lat":53.3804116224,"lng":-6.2816378252,"fullname":"Glasilawn Road","stopid":"157"},{"lat":53.3814819498,"lng":-6.2835639541,"fullname":"Griffith Road","stopid":"158"},{"lat":53.3827837192,"lng":-6.2828351125,"fullname":"Griffith Parade","stopid":"159"},{"lat":53.3884303639,"lng":-6.2804879229,"fullname":"Beneavin Road","stopid":"164"},{"lat":53.3890348747,"lng":-6.2837712488,"fullname":"Beneavin Park","stopid":"165"},{"lat":53.3895835974,"lng":-6.2863051486,"fullname":"Beneavin School","stopid":"166"},{"lat":53.3901866021,"lng":-6.2869875853,"fullname":"Beneavin Road","stopid":"167"},{"lat":53.3892599669,"lng":-6.2844237347,"fullname":"Beneavin Park","stopid":"168"},{"lat":53.3884339347,"lng":-6.28011191,"fullname":"Beneavin Court","stopid":"169"},{"lat":53.3821216123,"lng":-6.2805467484,"fullname":"Glasnamana Place","stopid":"173"},{"lat":53.3806803549,"lng":-6.2809505621,"fullname":"Tolka Estate","stopid":"174"},{"lat":53.3784242537,"lng":-6.281567539,"fullname":"Northland Grove","stopid":"175"},{"lat":53.378032042,"lng":-6.2792986061,"fullname":"Old Finglas Road","stopid":"176"},{"lat":53.3804683766,"lng":-6.2762240352,"fullname":"Ballygall Rd East","stopid":"177"},{"lat":53.3818902632,"lng":-6.2763469826,"fullname":"Fitzmaurice Road","stopid":"178"},{"lat":53.3803034313,"lng":-6.2760052198,"fullname":"Ballygall Rd East","stopid":"179"},{"lat":53.3771498434,"lng":-6.2742237069,"fullname":"Cremore Avenue","stopid":"181"},{"lat":53.3756567668,"lng":-6.2698050597,"fullname":"Met Eireann","stopid":"182"},{"lat":53.3723159291,"lng":-6.2687531849,"fullname":"Botanic Gardens","stopid":"183"},{"lat":53.369703682,"lng":-6.2689793545,"fullname":"Botanic Road","stopid":"184"},{"lat":53.368100936,"lng":-6.2700211393,"fullname":"St Teresa's Place","stopid":"185"},{"lat":53.3653553426,"lng":-6.2715899776,"fullname":"Lindsay Grove","stopid":"186"},{"lat":53.3627342524,"lng":-6.2724473653,"fullname":"Phibsborough Road","stopid":"187"},{"lat":53.3601206878,"lng":-6.2725831492,"fullname":"North Circular Road","stopid":"188"},{"lat":53.3571674395,"lng":-6.2734688156,"fullname":"Fire Station","stopid":"189"},{"lat":53.3551257304,"lng":-6.273371074,"fullname":"Broadstone","stopid":"190"},{"lat":53.3550179486,"lng":-6.2690337805,"fullname":"Western Way","stopid":"191"},{"lat":53.3563972112,"lng":-6.2680764696,"fullname":"Mountjoy Street","stopid":"192"},{"lat":53.391196306,"lng":-6.2941040349,"fullname":"Finglas Park","stopid":"193"},{"lat":53.3550406496,"lng":-6.269979311,"fullname":"Western Way","stopid":"194"},{"lat":53.3550117779,"lng":-6.2735709797,"fullname":"Broadstone","stopid":"195"},{"lat":53.3568838993,"lng":-6.2737507041,"fullname":"Fire Station","stopid":"196"},{"lat":53.3589526316,"lng":-6.2732313735,"fullname":"Monck Place","stopid":"197"},{"lat":53.3616253829,"lng":-6.2728378104,"fullname":"Phibsborough SC","stopid":"198"},{"lat":53.3636218115,"lng":-6.2722912462,"fullname":"Munster Street","stopid":"199"},{"lat":53.3674226926,"lng":-6.2715964439,"fullname":"Prospect Way","stopid":"200"},{"lat":53.3682910987,"lng":-6.2701186269,"fullname":"Botanic Road","stopid":"201"},{"lat":53.3700800876,"lng":-6.2689039775,"fullname":"Fairfield Road","stopid":"202"},{"lat":53.3763927937,"lng":-6.2500100281,"fullname":"Whitehall College","stopid":"203"},{"lat":53.3795883576,"lng":-6.2466621927,"fullname":"Highfield Hospital","stopid":"204"},{"lat":53.3813753269,"lng":-6.245326047,"fullname":"Iveragh Road","stopid":"205"},{"lat":53.383546089,"lng":-6.2474767079,"fullname":"Collins Avenue West","stopid":"206"},{"lat":53.3848216307,"lng":-6.2498747828,"fullname":"Larkhill Road","stopid":"207"},{"lat":53.3866539303,"lng":-6.2479504082,"fullname":"Glendun Road","stopid":"208"},{"lat":53.3872711105,"lng":-6.2459104473,"fullname":"Larkhill Road","stopid":"209"},{"lat":53.3875940813,"lng":-6.2483177285,"fullname":"Crestfield Road","stopid":"210"},{"lat":53.3842808562,"lng":-6.2491603306,"fullname":"Collins Avenue","stopid":"211"},{"lat":53.3831956351,"lng":-6.2462583975,"fullname":"Whitehall","stopid":"212"},{"lat":53.381449544,"lng":-6.2448720236,"fullname":"Iveragh Road","stopid":"213"},{"lat":53.3794084836,"lng":-6.2466545518,"fullname":"Highfield Hospital","stopid":"214"},{"lat":53.381872287,"lng":-6.2424494292,"fullname":"Collins Avenue","stopid":"215"},{"lat":53.3823308175,"lng":-6.2381913197,"fullname":"Beaumont Road","stopid":"216"},{"lat":53.3843236218,"lng":-6.2368011222,"fullname":"Grace Park Court","stopid":"217"},{"lat":53.385923899,"lng":-6.2337883241,"fullname":"Shantalla Road","stopid":"218"},{"lat":53.3879405397,"lng":-6.2449808412,"fullname":"Swords Road","stopid":"220"},{"lat":53.3858213106,"lng":-6.2335369942,"fullname":"Beaumont Road","stopid":"233"},{"lat":53.3849504827,"lng":-6.2348208427,"fullname":"Beaumont Grove","stopid":"234"},{"lat":53.3832966132,"lng":-6.2372494565,"fullname":"Collinswood","stopid":"235"},{"lat":53.3820247431,"lng":-6.23815886,"fullname":"Yellow Road","stopid":"236"},{"lat":53.3820319329,"lng":-6.2435251998,"fullname":"Collins Avenue","stopid":"237"},{"lat":53.3856548986,"lng":-6.2320104276,"fullname":"Coolgreena Road","stopid":"242"},{"lat":53.3857800608,"lng":-6.2295396745,"fullname":"Lady of Mercy","stopid":"243"},{"lat":53.3849982137,"lng":-6.2234985157,"fullname":"Skelly's Lane","stopid":"244"},{"lat":53.3844722444,"lng":-6.219566606,"fullname":"Whitethorn Crescent","stopid":"245"},{"lat":53.3851504766,"lng":-6.2162308772,"fullname":"Artane Castle","stopid":"246"},{"lat":53.3869761611,"lng":-6.2145007559,"fullname":"Ardlea Road","stopid":"247"},{"lat":53.3855645602,"lng":-6.2144696314,"fullname":"Maryfield Drive","stopid":"248"},{"lat":53.3849335492,"lng":-6.216149745,"fullname":"Artane Castle","stopid":"249"},{"lat":53.38441945,"lng":-6.2202453161,"fullname":"Skelly's Lane","stopid":"250"},{"lat":53.3848322787,"lng":-6.2232197863,"fullname":"Elmount Crescent","stopid":"251"},{"lat":53.3855680158,"lng":-6.2279699179,"fullname":"Lady of Mercy","stopid":"252"},{"lat":53.3899459507,"lng":-6.2243900469,"fullname":"Beaumont Hospital","stopid":"253"},{"lat":53.3902652984,"lng":-6.2241061137,"fullname":"Beaumont Hospital","stopid":"254"},{"lat":53.3855938804,"lng":-6.2315318724,"fullname":"Coolgreena Road","stopid":"255"},{"lat":53.3540562845,"lng":-6.2628533612,"fullname":"Parnell Square East","stopid":"261"},{"lat":53.353946961,"lng":-6.2627526489,"fullname":"Parnell Square East","stopid":"262"},{"lat":53.3537456235,"lng":-6.262505454,"fullname":"Parnell Square East","stopid":"263"},{"lat":53.3535353027,"lng":-6.2622586268,"fullname":"Parnell Square East","stopid":"264"},{"lat":53.3533615685,"lng":-6.2620553807,"fullname":"Parnell Square East","stopid":"265"},{"lat":53.3506233915,"lng":-6.2604242916,"fullname":"O'Connell St Upper","stopid":"270"},{"lat":53.3485963626,"lng":-6.25948542,"fullname":"O'Connell St Lower","stopid":"271"},{"lat":53.3514644799,"lng":-6.2607806057,"fullname":"O'Connell St Upper","stopid":"272"},{"lat":53.347247416,"lng":-6.2588194015,"fullname":"O'Connell Bridge","stopid":"273"},{"lat":53.3503490838,"lng":-6.2607208686,"fullname":"O'Connell St Upper","stopid":"274"},{"lat":53.3774022009,"lng":-6.3317965831,"fullname":"River Road","stopid":"276"},{"lat":53.3508223258,"lng":-6.2605063198,"fullname":"O'Connell St Upper","stopid":"277"},{"lat":53.3515608719,"lng":-6.2612273356,"fullname":"O'Connell St Upper","stopid":"278"},{"lat":53.3501317464,"lng":-6.260609547,"fullname":"O'Connell St Upper","stopid":"279"},{"lat":53.351343535,"lng":-6.2611160084,"fullname":"O'Connell St Upper","stopid":"281"},{"lat":53.3772826239,"lng":-6.3283892838,"fullname":"Rathbourne Avenue","stopid":"284"},{"lat":53.3521708437,"lng":-6.259910611,"fullname":"Cathal Brugha Street","stopid":"No. 286"},{"lat":53.3491688123,"lng":-6.2556017035,"fullname":"Irish Life","stopid":"288"},{"lat":53.3490351823,"lng":-6.2562981234,"fullname":"Abbey St Lower","stopid":"289"},{"lat":53.3489504003,"lng":-6.2566470649,"fullname":"Abbey St Lower","stopid":"291"},{"lat":53.3491996948,"lng":-6.2552549594,"fullname":"Abbey St Lower","stopid":"292"},{"lat":53.3488581696,"lng":-6.2571014551,"fullname":"Abbey St Lower","stopid":"293"},{"lat":53.3481432679,"lng":-6.256770126,"fullname":"Eden Quay","stopid":"297"},{"lat":53.3482006634,"lng":-6.2563922678,"fullname":"Eden Quay","stopid":"298"},{"lat":53.3482418474,"lng":-6.2561352357,"fullname":"Eden Quay","stopid":"299"},{"lat":53.3482992409,"lng":-6.2557573758,"fullname":"Liberty Hall","stopid":"300"},{"lat":53.3479883676,"lng":-6.2566262409,"fullname":"Eden Quay","stopid":"301"},{"lat":53.3480380962,"lng":-6.2563388204,"fullname":"Eden Quay","stopid":"302"},{"lat":53.3480599981,"lng":-6.2559924527,"fullname":"Eden Quay","stopid":"303"},{"lat":53.3345770895,"lng":-6.2800874642,"fullname":"O'Donovan Road","stopid":"307"},{"lat":53.336771189,"lng":-6.2795336569,"fullname":"Oscar Square","stopid":"308"},{"lat":53.3378498918,"lng":-6.2789195882,"fullname":"Ardee Street","stopid":"309"},{"lat":53.3454764728,"lng":-6.2662061555,"fullname":"Wellington Quay","stopid":"312"},{"lat":53.3469069007,"lng":-6.2619724977,"fullname":"Bachelors Walk","stopid":"313"},{"lat":53.3470973048,"lng":-6.2614690836,"fullname":"Bachelors Walk","stopid":"315"},{"lat":53.3465259445,"lng":-6.2592693662,"fullname":"Westmoreland Street","stopid":"317"},{"lat":53.3464177131,"lng":-6.259243736,"fullname":"Westmoreland Street","stopid":"318"},{"lat":53.3462744267,"lng":-6.2592796139,"fullname":"Westmoreland Street","stopid":"319"},{"lat":53.3456456324,"lng":-6.2593052325,"fullname":"Westmoreland Street","stopid":"320"},{"lat":53.4042549925,"lng":-6.2653508453,"fullname":"Gulliver's Retail Pk","stopid":"322"},{"lat":53.3466970503,"lng":-6.2599082595,"fullname":"Aston Quay","stopid":"325"},{"lat":53.3465535365,"lng":-6.2605449472,"fullname":"Aston Quay","stopid":"326"},{"lat":53.3463499836,"lng":-6.2613793339,"fullname":"Aston Quay","stopid":"328"},{"lat":53.3463188645,"lng":-6.2617110397,"fullname":"Aston Quay","stopid":"329"},{"lat":53.3466922366,"lng":-6.258346364,"fullname":"D'Olier Street","stopid":"333"},{"lat":53.3465811562,"lng":-6.2581255911,"fullname":"D'Olier Street","stopid":"334"},{"lat":53.3463614054,"lng":-6.2578491705,"fullname":"D'Olier Street","stopid":"335"},{"lat":53.3462516394,"lng":-6.2577184667,"fullname":"D'Olier Street","stopid":"336"},{"lat":53.3460128066,"lng":-6.2561360992,"fullname":"Townsend Street","stopid":"340"},{"lat":53.3455641183,"lng":-6.2568002608,"fullname":"College Street","stopid":"342"},{"lat":53.3454758155,"lng":-6.2562931941,"fullname":"Pearse St Garda Stn","stopid":"345"},{"lat":53.3455443982,"lng":-6.2566809076,"fullname":"Pearse St Garda Stn","stopid":"346"},{"lat":53.3456319416,"lng":-6.2497682496,"fullname":"Prince's St South","stopid":"350"},{"lat":53.3434182648,"lng":-6.2453081738,"fullname":"Erne Street","stopid":"351"},{"lat":53.3429891458,"lng":-6.24241214,"fullname":"Pearse Square","stopid":"352"},{"lat":53.3426158464,"lng":-6.2396490317,"fullname":"Grand Canal Quay","stopid":"353"},{"lat":53.342235828,"lng":-6.2364356898,"fullname":"Ringsend Road","stopid":"354"},{"lat":53.3418173478,"lng":-6.2330587907,"fullname":"Ringsend Garage","stopid":"355"},{"lat":53.3419030234,"lng":-6.2267174431,"fullname":"Ringsend","stopid":"356"},{"lat":53.339171044,"lng":-6.2231214749,"fullname":"Irishtown Road","stopid":"357"},{"lat":53.3386127807,"lng":-6.2230545825,"fullname":"Irishtown Road","stopid":"371"},{"lat":53.335488147,"lng":-6.2196556714,"fullname":"Star of the Sea","stopid":"372"},{"lat":53.3342753313,"lng":-6.2178892726,"fullname":"Farney Park","stopid":"373"},{"lat":53.3332284399,"lng":-6.2164013421,"fullname":"Sandymount","stopid":"374"},{"lat":53.3340611347,"lng":-6.2143845131,"fullname":"Dromard Terrace","stopid":"375"},{"lat":53.3307125262,"lng":-6.2092542646,"fullname":"Lea Road","stopid":"376"},{"lat":53.3287289292,"lng":-6.2088418953,"fullname":"Gilford Road","stopid":"377"},{"lat":53.3256502919,"lng":-6.207334472,"fullname":"Sandymount Tower","stopid":"378"},{"lat":53.3247260855,"lng":-6.2092347723,"fullname":"St John's Road","stopid":"380"},{"lat":53.3243237661,"lng":-6.2123741934,"fullname":"St John's Church","stopid":"381"},{"lat":53.3250628542,"lng":-6.2077194049,"fullname":"St John's Road","stopid":"382"},{"lat":53.3286049758,"lng":-6.2089671996,"fullname":"Gilford Road","stopid":"383"},{"lat":53.3316339524,"lng":-6.2101616049,"fullname":"Lea Road","stopid":"384"},{"lat":53.3323510231,"lng":-6.2112276879,"fullname":"Newgrove Avenue","stopid":"385"},{"lat":53.3324995102,"lng":-6.2157410577,"fullname":"Sandymount","stopid":"387"},{"lat":53.334508862,"lng":-6.2184801726,"fullname":"Farney Park","stopid":"388"},{"lat":53.3352900818,"lng":-6.2196338894,"fullname":"Star of the Sea","stopid":"389"},{"lat":53.3376299138,"lng":-6.2222394793,"fullname":"Tritonville Road","stopid":"390"},{"lat":53.3400638555,"lng":-6.2239253518,"fullname":"Bath Street","stopid":"391"},{"lat":53.3417336312,"lng":-6.2274153211,"fullname":"Ringsend","stopid":"392"},{"lat":53.3369038877,"lng":-6.2223747969,"fullname":"Tritonville Road","stopid":"393"},{"lat":53.3419400536,"lng":-6.2352764544,"fullname":"Ringsend Road","stopid":"395"},{"lat":53.3424615904,"lng":-6.2395502559,"fullname":"Grand Canal Quay","stopid":"396"},{"lat":53.3427855554,"lng":-6.2420150073,"fullname":"Pearse Square","stopid":"397"},{"lat":53.343294935,"lng":-6.2454784469,"fullname":"Erne Street","stopid":"398"},{"lat":53.3438668221,"lng":-6.2483086014,"fullname":"Pearse Station","stopid":"399"},{"lat":53.3448464839,"lng":-6.253209847,"fullname":"Shaw Street","stopid":"400"},{"lat":53.3426633325,"lng":-6.2563478924,"fullname":"Nassau Street","stopid":"404"},{"lat":53.3424816892,"lng":-6.2556043727,"fullname":"Nassau Street","stopid":"405"},{"lat":53.3426061452,"lng":-6.2561249458,"fullname":"Nassau Street","stopid":"406"},{"lat":53.3483795867,"lng":-6.253876506,"fullname":"Custom House","stopid":"407"},{"lat":53.3409707826,"lng":-6.2500192396,"fullname":"Merrion Sq North","stopid":"408"},{"lat":53.3401367313,"lng":-6.2476955956,"fullname":"Holles Street","stopid":"409"},{"lat":53.3388134509,"lng":-6.2438903903,"fullname":"Mount Street Lower","stopid":"410"},{"lat":53.3381171192,"lng":-6.2417715535,"fullname":"Mount Street Bridge","stopid":"411"},{"lat":53.3352555102,"lng":-6.2372793191,"fullname":"Haddington Road","stopid":"412"},{"lat":53.3340941933,"lng":-6.2365463941,"fullname":"Lansdowne Park","stopid":"413"},{"lat":53.3315738059,"lng":-6.234473217,"fullname":"Lansdowne Road","stopid":"414"},{"lat":53.3303378154,"lng":-6.2329477497,"fullname":"American Embassy","stopid":"415"},{"lat":53.3286399201,"lng":-6.2293695691,"fullname":"RDS Ballsbridge","stopid":"416"},{"lat":53.3276995857,"lng":-6.2259704205,"fullname":"Merrion Road","stopid":"417"},{"lat":53.3257198105,"lng":-6.2233952975,"fullname":"British Embassy","stopid":"418"},{"lat":53.3239951058,"lng":-6.2204495031,"fullname":"Shrewsbury Park","stopid":"419"},{"lat":53.3219108013,"lng":-6.2175039217,"fullname":"Merlyn Road","stopid":"420"},{"lat":53.3200051794,"lng":-6.2144911204,"fullname":"Merrion View Avenue","stopid":"421"},{"lat":53.3180641919,"lng":-6.2103242807,"fullname":"St Vincent's Hosp","stopid":"422"},{"lat":53.3171485041,"lng":-6.2074056583,"fullname":"Herbert Avenue","stopid":"423"},{"lat":53.3153943802,"lng":-6.2037268662,"fullname":"Merrion Gates","stopid":"424"},{"lat":53.3157515264,"lng":-6.2047625227,"fullname":"Merrion Gates","stopid":"476"},{"lat":53.3168630547,"lng":-6.2069523201,"fullname":"Herbert Avenue","stopid":"477"},{"lat":53.3181142989,"lng":-6.2112678253,"fullname":"St Vincent's Hosp","stopid":"478"},{"lat":53.3191439676,"lng":-6.2134012867,"fullname":"Merrion Centre","stopid":"479"},{"lat":53.32084998,"lng":-6.2162872054,"fullname":"Netherlands Embassy","stopid":"480"},{"lat":53.3223446398,"lng":-6.218266443,"fullname":"Wanderers FC","stopid":"481"},{"lat":53.3247277781,"lng":-6.221965295,"fullname":"Shrewsbury Road","stopid":"482"},{"lat":53.3259441075,"lng":-6.2239714805,"fullname":"British Embassy","stopid":"483"},{"lat":53.3282515101,"lng":-6.2286349708,"fullname":"RDS Ballsbridge","stopid":"485"},{"lat":53.3308552894,"lng":-6.2339023084,"fullname":"American Embassy","stopid":"487"},{"lat":53.3330985546,"lng":-6.236076947,"fullname":"Lansdowne Park","stopid":"488"},{"lat":53.3349420031,"lng":-6.2373523127,"fullname":"St Mary's Rd South","stopid":"489"},{"lat":53.3365738419,"lng":-6.238906806,"fullname":"Haddington Road","stopid":"490"},{"lat":53.3378140535,"lng":-6.2413335109,"fullname":"Mount Street Bridge","stopid":"491"},{"lat":53.3385846851,"lng":-6.2436144622,"fullname":"Mount Street Lower","stopid":"492"},{"lat":53.3398534164,"lng":-6.2473768227,"fullname":"Holles Street","stopid":"493"},{"lat":53.3414355834,"lng":-6.2516822523,"fullname":"Clare Street","stopid":"494"},{"lat":53.3435913198,"lng":-6.2497467052,"fullname":"Pearse Station","stopid":"495"},{"lat":53.3494968761,"lng":-6.2522235787,"fullname":"Bus\u00e1ras","stopid":"496"},{"lat":53.3505260754,"lng":-6.2506943432,"fullname":"Connolly","stopid":"497"},{"lat":53.3574503386,"lng":-6.2490886269,"fullname":"Summerhill Parade","stopid":"499"},{"lat":53.3590360763,"lng":-6.2462891553,"fullname":"Ballybough Road","stopid":"500"},{"lat":53.3607056847,"lng":-6.2436963743,"fullname":"Clonliffe Avenue","stopid":"501"},{"lat":53.3606013494,"lng":-6.2433250395,"fullname":"Ballybough Road","stopid":"509"},{"lat":53.3591893775,"lng":-6.2457119272,"fullname":"Charleville Avenue","stopid":"510"},{"lat":53.3575155897,"lng":-6.2486352334,"fullname":"Summerhill Parade","stopid":"511"},{"lat":53.355211963,"lng":-6.2539727681,"fullname":"Rutland Street","stopid":"513"},{"lat":53.3535348728,"lng":-6.2480924008,"fullname":"Portland Row","stopid":"515"},{"lat":53.3556839194,"lng":-6.2457056844,"fullname":"North Strand Road","stopid":"516"},{"lat":53.3589041624,"lng":-6.2409909439,"fullname":"Waterloo Avenue","stopid":"518"},{"lat":53.3603387601,"lng":-6.2395345287,"fullname":"North Strand Road","stopid":"519"},{"lat":53.3616370471,"lng":-6.2379784607,"fullname":"Annesley Bridge Road","stopid":"521"},{"lat":53.363288949,"lng":-6.2354159747,"fullname":"Fairview","stopid":"522"},{"lat":53.3642854537,"lng":-6.2316933317,"fullname":"Marino College","stopid":"523"},{"lat":53.3649608735,"lng":-6.2263309112,"fullname":"Howth Road","stopid":"525"},{"lat":53.3668695722,"lng":-6.2211122786,"fullname":"Copeland Grove","stopid":"526"},{"lat":53.3680198762,"lng":-6.2126788805,"fullname":"St Lawrence Road","stopid":"527"},{"lat":53.3692640807,"lng":-6.2099367446,"fullname":"Castle Grove","stopid":"528"},{"lat":53.3705774149,"lng":-6.2076123452,"fullname":"Collins Avenue","stopid":"529"},{"lat":53.3712245323,"lng":-6.2040233297,"fullname":"Killester","stopid":"530"},{"lat":53.3732509125,"lng":-6.2013078847,"fullname":"The Demesne","stopid":"531"},{"lat":53.3758020804,"lng":-6.1934746858,"fullname":"The Meadows","stopid":"532"},{"lat":53.3775832778,"lng":-6.1870561395,"fullname":"Ennafort Park","stopid":"533"},{"lat":53.3787502416,"lng":-6.18164029,"fullname":"Cill Eanna","stopid":"534"},{"lat":53.380257073,"lng":-6.1773069571,"fullname":"Raheny","stopid":"535"},{"lat":53.3804237567,"lng":-6.1735117268,"fullname":"Raheny Library","stopid":"536"},{"lat":53.3799012003,"lng":-6.168152635,"fullname":"Avondale Park","stopid":"537"},{"lat":53.3801380646,"lng":-6.1642641832,"fullname":"Maywood","stopid":"538"},{"lat":53.3806736618,"lng":-6.1593556415,"fullname":"Foxfield","stopid":"539"},{"lat":53.3813362764,"lng":-6.1551179435,"fullname":"Blackbanks Coast","stopid":"540"},{"lat":53.3818727078,"lng":-6.1520280684,"fullname":"James Larkin Road","stopid":"541"},{"lat":53.38366192,"lng":-6.1462679499,"fullname":"Blackbanks","stopid":"542"},{"lat":53.38416759,"lng":-6.1446824866,"fullname":"Kilbarrack Road","stopid":"591"},{"lat":53.3827330098,"lng":-6.1483828725,"fullname":"James Larkin Road","stopid":"592"},{"lat":53.381848695,"lng":-6.1516382572,"fullname":"Blackbanks","stopid":"593"},{"lat":53.3811633656,"lng":-6.1555613621,"fullname":"Howth Road","stopid":"594"},{"lat":53.3805999504,"lng":-6.159238563,"fullname":"Foxfield","stopid":"595"},{"lat":53.3802528433,"lng":-6.1617939721,"fullname":"The Old Shieling","stopid":"596"},{"lat":53.3798981358,"lng":-6.1656123554,"fullname":"Maywood","stopid":"597"},{"lat":53.3798466296,"lng":-6.1692823774,"fullname":"Avondale Park","stopid":"598"},{"lat":53.3803003189,"lng":-6.1730810784,"fullname":"Raheny Library","stopid":"599"},{"lat":53.3802479252,"lng":-6.1761198105,"fullname":"Raheny","stopid":"600"},{"lat":53.3792234833,"lng":-6.1796659966,"fullname":"Cill Eanna","stopid":"601"},{"lat":53.3781425248,"lng":-6.183049071,"fullname":"Wade's Avenue","stopid":"602"},{"lat":53.377382159,"lng":-6.1874254297,"fullname":"Ennafort Park","stopid":"603"},{"lat":53.376354644,"lng":-6.1907908597,"fullname":"Ennafort Road","stopid":"604"},{"lat":53.3756666621,"lng":-6.1934353266,"fullname":"The Meadows","stopid":"605"},{"lat":53.3747089784,"lng":-6.1978646603,"fullname":"St Bridgets Church","stopid":"606"},{"lat":53.37251578,"lng":-6.2020302137,"fullname":"The Demense","stopid":"607"},{"lat":53.3710783845,"lng":-6.2044653148,"fullname":"Killester","stopid":"608"},{"lat":53.3698375441,"lng":-6.2086202565,"fullname":"Castle Grove","stopid":"609"},{"lat":53.3683623013,"lng":-6.2115374553,"fullname":"Ashbrook","stopid":"610"},{"lat":53.3667546791,"lng":-6.2188329221,"fullname":"Hollybrook Park","stopid":"611"},{"lat":53.3657562265,"lng":-6.22420913,"fullname":"Copeland Avenue","stopid":"612"},{"lat":53.364617471,"lng":-6.2268109984,"fullname":"Marino Crescent Park","stopid":"613"},{"lat":53.3636380024,"lng":-6.2334932303,"fullname":"Fairview","stopid":"614"},{"lat":53.3619064165,"lng":-6.2373512989,"fullname":"Annesley Bridge","stopid":"615"},{"lat":53.3598447138,"lng":-6.2395548963,"fullname":"Nth Strand Fire Stn","stopid":"616"},{"lat":53.3578945211,"lng":-6.2420090964,"fullname":"Strandville Avenue","stopid":"617"},{"lat":53.356101178,"lng":-6.2447420676,"fullname":"Newcomen Bridge","stopid":"618"},{"lat":53.354044625,"lng":-6.2473053335,"fullname":"Amiens Street","stopid":"619"},{"lat":53.3509610944,"lng":-6.2527795569,"fullname":"Talbot Street","stopid":"620"},{"lat":53.3505177759,"lng":-6.2562676485,"fullname":"Talbot Street","stopid":"621"},{"lat":53.3801853071,"lng":-6.189125238,"fullname":"Ribh Road","stopid":"624"},{"lat":53.3817875654,"lng":-6.1863212973,"fullname":"Lein Gardens","stopid":"625"},{"lat":53.3844945184,"lng":-6.1840564192,"fullname":"Edenmore Green","stopid":"626"},{"lat":53.385407017,"lng":-6.1820030326,"fullname":"Edenmore Green","stopid":"627"},{"lat":53.3869549963,"lng":-6.1839065792,"fullname":"Edenmore Grove","stopid":"628"},{"lat":53.3865279695,"lng":-6.1859694247,"fullname":"Edenmore Drive","stopid":"629"},{"lat":53.3872439959,"lng":-6.1893217523,"fullname":"Springdale Road","stopid":"630"},{"lat":53.3896443405,"lng":-6.1893551804,"fullname":"Tonlegee Drive","stopid":"633"},{"lat":53.3902751967,"lng":-6.1841411092,"fullname":"Tonlegee Avenue","stopid":"634"},{"lat":53.3890225361,"lng":-6.1839238013,"fullname":"Glenwood Road","stopid":"635"},{"lat":53.3888586595,"lng":-6.1867423481,"fullname":"Glenfarne Road","stopid":"636"},{"lat":53.3877918262,"lng":-6.1898848542,"fullname":"Springdale Road","stopid":"637"},{"lat":53.3867623213,"lng":-6.1883799961,"fullname":"Edenmore Avenue","stopid":"638"},{"lat":53.3863330185,"lng":-6.1867444608,"fullname":"Edenmore Park","stopid":"639"},{"lat":53.3867053852,"lng":-6.1834511398,"fullname":"Edenmore Grove","stopid":"640"},{"lat":53.3858263828,"lng":-6.1823910815,"fullname":"Edenmore Green","stopid":"641"},{"lat":53.3847318483,"lng":-6.183114229,"fullname":"Edenmore Green","stopid":"642"},{"lat":53.3835661359,"lng":-6.1838854683,"fullname":"St Josephs Hospital","stopid":"643"},{"lat":53.3823625142,"lng":-6.1857105766,"fullname":"Lein Park","stopid":"644"},{"lat":53.3801688019,"lng":-6.1886298805,"fullname":"Ribh Road","stopid":"645"},{"lat":53.3762836659,"lng":-6.1896665671,"fullname":"All Saints Road","stopid":"649"},{"lat":53.3754028537,"lng":-6.1855254832,"fullname":"Sybil Hill Avenue","stopid":"650"},{"lat":53.3754794508,"lng":-6.1799309091,"fullname":"All Saints Park","stopid":"651"},{"lat":53.3794630466,"lng":-6.175341639,"fullname":"Raheny","stopid":"653"},{"lat":53.3792100758,"lng":-6.1770209808,"fullname":"Watermill Road","stopid":"654"},{"lat":53.3777386714,"lng":-6.1754304023,"fullname":"Watermill Drive","stopid":"655"},{"lat":53.3764702008,"lng":-6.1777091918,"fullname":"St Anne's Avenue","stopid":"656"},{"lat":53.3755453979,"lng":-6.178951117,"fullname":"All Saints Park","stopid":"657"},{"lat":53.3749800485,"lng":-6.1831386199,"fullname":"All Saints Road","stopid":"658"},{"lat":53.3752374407,"lng":-6.1858782135,"fullname":"Sybil Hill Avenue","stopid":"659"},{"lat":53.3747192481,"lng":-6.2195075621,"fullname":"Donnycarney Church","stopid":"664"},{"lat":53.3724663178,"lng":-6.2221264612,"fullname":"Casino Park","stopid":"665"},{"lat":53.3702331241,"lng":-6.2242633478,"fullname":"Mount Temple School","stopid":"666"},{"lat":53.3679816455,"lng":-6.2269868465,"fullname":"Brian Road","stopid":"667"},{"lat":53.3645749809,"lng":-6.2293973169,"fullname":"Marino Crescent Park","stopid":"668"},{"lat":53.3663170048,"lng":-6.2286789053,"fullname":"Malahide Road","stopid":"669"},{"lat":53.3689561148,"lng":-6.2260296639,"fullname":"Mount Temple School","stopid":"670"},{"lat":53.370716842,"lng":-6.2241530532,"fullname":"Nazareth House","stopid":"671"},{"lat":53.37346635,"lng":-6.2210778208,"fullname":"Donnycarney Road","stopid":"672"},{"lat":53.3528581377,"lng":-6.2485257595,"fullname":"Buckingham St Lower","stopid":"675"},{"lat":53.3750380599,"lng":-6.197039132,"fullname":"St Brigid's Church","stopid":"709"},{"lat":53.3811136997,"lng":-6.1757220247,"fullname":"Raheny Station","stopid":"722"},{"lat":53.384151788,"lng":-6.1757274221,"fullname":"Raheny Road","stopid":"723"},{"lat":53.3869554629,"lng":-6.1745100114,"fullname":"Grange Park Road","stopid":"724"},{"lat":53.3895723721,"lng":-6.1704888113,"fullname":"Ardscoil La Salle","stopid":"725"},{"lat":53.3917483514,"lng":-6.1676137807,"fullname":"Grange Road","stopid":"726"},{"lat":53.3937048519,"lng":-6.1668380248,"fullname":"Ardara Avenue","stopid":"727"},{"lat":53.3953162107,"lng":-6.1634905947,"fullname":"Holy Trinity Church","stopid":"728"},{"lat":53.3965584588,"lng":-6.1624445952,"fullname":"Holy Trinity NS","stopid":"729"},{"lat":53.3981666977,"lng":-6.1618188688,"fullname":"Grangemore Road","stopid":"730"},{"lat":53.397600355,"lng":-6.1618132055,"fullname":"Grange Road","stopid":"738"},{"lat":53.3951450859,"lng":-6.1634678892,"fullname":"Holy Trinity Church","stopid":"739"},{"lat":53.3931412776,"lng":-6.1670126153,"fullname":"Ardara Avenue","stopid":"740"},{"lat":53.3919077252,"lng":-6.1674565712,"fullname":"St Donagh's Road","stopid":"741"},{"lat":53.3898234138,"lng":-6.169861588,"fullname":"Raheny Road","stopid":"742"},{"lat":53.3880248638,"lng":-6.1727352382,"fullname":"Woodbine Park","stopid":"743"},{"lat":53.3850921988,"lng":-6.1749204844,"fullname":"Belmont Park","stopid":"744"},{"lat":53.3813435656,"lng":-6.1754716767,"fullname":"Raheny Station","stopid":"745"},{"lat":53.3401536166,"lng":-6.2555942815,"fullname":"Kildare Street","stopid":"746"},{"lat":53.339930803,"lng":-6.2557235187,"fullname":"Kildare Street","stopid":"747"},{"lat":53.3385095344,"lng":-6.255030666,"fullname":"Huguenot Cemetery","stopid":"748"},{"lat":53.337620701,"lng":-6.2508021472,"fullname":"Baggot St Lower","stopid":"749"},{"lat":53.3365710801,"lng":-6.2484875033,"fullname":"Fitzwilliam Street","stopid":"750"},{"lat":53.3353205479,"lng":-6.2465716355,"fullname":"Herbert Street","stopid":"751"},{"lat":53.3336716542,"lng":-6.24446202,"fullname":"Baggot St Upper","stopid":"752"},{"lat":53.3324533903,"lng":-6.2435210546,"fullname":"Waterloo Road","stopid":"753"},{"lat":53.3307837824,"lng":-6.2442803273,"fullname":"Burlington Road","stopid":"754"},{"lat":53.3288280457,"lng":-6.245141368,"fullname":"Wellington Lane","stopid":"755"},{"lat":53.3263997618,"lng":-6.2425987467,"fullname":"Royal Hospital","stopid":"756"},{"lat":53.3240813372,"lng":-6.2395865099,"fullname":"Donnybrook Village","stopid":"757"},{"lat":53.322686943,"lng":-6.2376773804,"fullname":"Victoria Avenue","stopid":"758"},{"lat":53.3203488508,"lng":-6.2333455168,"fullname":"Donnybrook Stadium","stopid":"759"},{"lat":53.3183301873,"lng":-6.2305619559,"fullname":"Donnybrook Church","stopid":"760"},{"lat":53.3161004008,"lng":-6.2274872137,"fullname":"Teresian School","stopid":"761"},{"lat":53.3145170649,"lng":-6.2243709441,"fullname":"RTE","stopid":"762"},{"lat":53.3123201448,"lng":-6.2211003191,"fullname":"Belfield Court","stopid":"763"},{"lat":53.3119010923,"lng":-6.2213278571,"fullname":"Belfield Court","stopid":"769"},{"lat":53.3146361876,"lng":-6.2257318113,"fullname":"RTE","stopid":"770"},{"lat":53.3158800692,"lng":-6.2277815224,"fullname":"Teresian School","stopid":"771"},{"lat":53.3184852575,"lng":-6.2313210636,"fullname":"Donnybrook Garage","stopid":"772"},{"lat":53.3199163485,"lng":-6.2332733193,"fullname":"Donnybrook Road","stopid":"773"},{"lat":53.3216121236,"lng":-6.2354999964,"fullname":"Donnybrook Garda Stn","stopid":"774"},{"lat":53.3234897098,"lng":-6.2390854472,"fullname":"Donnybrook Village","stopid":"775"},{"lat":53.3254792403,"lng":-6.2417358211,"fullname":"Morehampton Terrace","stopid":"776"},{"lat":53.3269721601,"lng":-6.2436261436,"fullname":"Royal Hospital","stopid":"777"},{"lat":53.3286887363,"lng":-6.2454473626,"fullname":"Waterloo Road","stopid":"779"},{"lat":53.3310633512,"lng":-6.2443439182,"fullname":"Burlington Road","stopid":"780"},{"lat":53.3326262714,"lng":-6.2436641026,"fullname":"Baggot Street","stopid":"781"},{"lat":53.3335838145,"lng":-6.2446007675,"fullname":"Baggot St Upper","stopid":"782"},{"lat":53.3353085374,"lng":-6.246977564,"fullname":"Baggot St Lower","stopid":"783"},{"lat":53.3364567281,"lng":-6.2486573715,"fullname":"Fitzwilliam Street","stopid":"784"},{"lat":53.3371058976,"lng":-6.2518593735,"fullname":"Pembroke St Lower","stopid":"785"},{"lat":53.3351467148,"lng":-6.2561740358,"fullname":"Embassy of Malta","stopid":"786"},{"lat":53.339294372,"lng":-6.258302473,"fullname":"Stephen's Green Nth","stopid":"790"},{"lat":53.3388796212,"lng":-6.2569828305,"fullname":"Stephen's Green Nth","stopid":"791"},{"lat":53.3404489882,"lng":-6.2585858085,"fullname":"Dawson Street","stopid":"792"},{"lat":53.340859786,"lng":-6.2584038692,"fullname":"Dawson Street","stopid":"793"},{"lat":53.3587400433,"lng":-6.2697242782,"fullname":"Berkeley Road","stopid":"795"},{"lat":53.3600182144,"lng":-6.2698527858,"fullname":"Berkeley Road","stopid":"796"},{"lat":53.3607260028,"lng":-6.2746621647,"fullname":"Phibsborough PO","stopid":"797"},{"lat":53.3594766361,"lng":-6.2796407009,"fullname":"Rathdown Road","stopid":"798"},{"lat":53.35886871,"lng":-6.281738551,"fullname":"Charleville Road","stopid":"799"},{"lat":53.3580651515,"lng":-6.2846104289,"fullname":"Annamore Parade","stopid":"800"},{"lat":53.3574704998,"lng":-6.2876390824,"fullname":"Annamore Road","stopid":"801"},{"lat":53.3564983225,"lng":-6.2912987228,"fullname":"Drumalee","stopid":"802"},{"lat":53.3547130307,"lng":-6.2940442139,"fullname":"Oxmantown Road","stopid":"803"},{"lat":53.3536849852,"lng":-6.2956926805,"fullname":"O'Devaney Gardens","stopid":"804"},{"lat":53.3515565121,"lng":-6.2977003861,"fullname":"Phoenix Park","stopid":"807"},{"lat":53.3539946695,"lng":-6.2953498265,"fullname":"North Circular Road","stopid":"808"},{"lat":53.3552607398,"lng":-6.2933763462,"fullname":"Marlborough Road","stopid":"809"},{"lat":53.3570998602,"lng":-6.2899976413,"fullname":"Ellesmere Avenue","stopid":"810"},{"lat":53.3575671568,"lng":-6.2874849682,"fullname":"Annamore Road","stopid":"811"},{"lat":53.3582663607,"lng":-6.2842267437,"fullname":"Annamore Parade","stopid":"812"},{"lat":53.3591900461,"lng":-6.2809593744,"fullname":"Charleville Road","stopid":"813"},{"lat":53.3605400151,"lng":-6.2760970493,"fullname":"St Peter's Church","stopid":"814"},{"lat":53.359646218,"lng":-6.2696124384,"fullname":"Mater Hospital","stopid":"817"},{"lat":53.3584811208,"lng":-6.2692239448,"fullname":"O'Connell Avenue","stopid":"818"},{"lat":53.3563040209,"lng":-6.2659919857,"fullname":"Blessington Street","stopid":"819"},{"lat":53.3619677951,"lng":-6.2935139796,"fullname":"Carnlough Road","stopid":"820"},{"lat":53.3645519035,"lng":-6.2938314364,"fullname":"Drumcliffe Road","stopid":"821"},{"lat":53.3671206776,"lng":-6.2918203211,"fullname":"Mulroy Road","stopid":"822"},{"lat":53.368235154,"lng":-6.2911896505,"fullname":"Kilkieran Road","stopid":"823"},{"lat":53.3697478519,"lng":-6.293263095,"fullname":"Bannow Road","stopid":"824"},{"lat":53.3704294399,"lng":-6.2969328259,"fullname":"St Finbar's Road","stopid":"825"},{"lat":53.3712178544,"lng":-6.3011695076,"fullname":"Carnlough Road","stopid":"826"},{"lat":53.3712939491,"lng":-6.3039918694,"fullname":"Ventry Park","stopid":"827"},{"lat":53.3710448241,"lng":-6.2997486779,"fullname":"Broombridge Station","stopid":"828"},{"lat":53.3703968946,"lng":-6.2959121952,"fullname":"St Finbar's Road","stopid":"829"},{"lat":53.3696243717,"lng":-6.2921709802,"fullname":"Bannow Road","stopid":"830"},{"lat":53.3676619691,"lng":-6.2913328129,"fullname":"Mulroy Road","stopid":"831"},{"lat":53.3636294546,"lng":-6.2940636349,"fullname":"Drumcliffe Road","stopid":"832"},{"lat":53.3617761473,"lng":-6.2933112838,"fullname":"Swilly Road","stopid":"833"},{"lat":53.3619754108,"lng":-6.260427638,"fullname":"Binns Bridge","stopid":"834"},{"lat":53.3626280166,"lng":-6.2632709616,"fullname":"St Brigid's Rd Lower","stopid":"835"},{"lat":53.3632915018,"lng":-6.2662491624,"fullname":"Claude Road","stopid":"836"},{"lat":53.3637784077,"lng":-6.268212837,"fullname":"David Road","stopid":"837"},{"lat":53.3643193961,"lng":-6.270189391,"fullname":"Whitworth Road","stopid":"838"},{"lat":53.3637449204,"lng":-6.2677634125,"fullname":"David Road","stopid":"839"},{"lat":53.3632433496,"lng":-6.2654096661,"fullname":"Claude Road","stopid":"840"},{"lat":53.3621221995,"lng":-6.2606320154,"fullname":"St Patrick's Road","stopid":"841"},{"lat":53.337251975,"lng":-6.2563133892,"fullname":"Stephen's Green East","stopid":"842"},{"lat":53.3370024314,"lng":-6.2564587207,"fullname":"Stephen's Green East","stopid":"843"},{"lat":53.3376318721,"lng":-6.2558623985,"fullname":"Stephen's Green East","stopid":"844"},{"lat":53.3354534455,"lng":-6.2562516183,"fullname":"Leeson St Lower","stopid":"845"},{"lat":53.333453733,"lng":-6.2541109085,"fullname":"Fitzwilliam Place","stopid":"846"},{"lat":53.3316014452,"lng":-6.2522196197,"fullname":"Leeson St Upper","stopid":"847"},{"lat":53.3297279908,"lng":-6.2488879984,"fullname":"Sussex Road","stopid":"848"},{"lat":53.3278982726,"lng":-6.2479270091,"fullname":"Appian Way","stopid":"849"},{"lat":53.3260857395,"lng":-6.2511990312,"fullname":"Chelmsford Road","stopid":"850"},{"lat":53.3250997052,"lng":-6.253221016,"fullname":"Chelmsford Road","stopid":"851"},{"lat":53.3244292665,"lng":-6.2528580854,"fullname":"Ranelagh","stopid":"852"},{"lat":53.32259277,"lng":-6.2483695771,"fullname":"Sandford Road","stopid":"853"},{"lat":53.3216316713,"lng":-6.2465775632,"fullname":"Larch Grove","stopid":"854"},{"lat":53.3193022985,"lng":-6.2428153659,"fullname":"Sandford Road","stopid":"855"},{"lat":53.3176551118,"lng":-6.2408266797,"fullname":"Clonskeagh Road","stopid":"856"},{"lat":53.3165673801,"lng":-6.2383798303,"fullname":"Clonskeagh Hospital","stopid":"857"},{"lat":53.3140944728,"lng":-6.2383015722,"fullname":"Clonskeagh","stopid":"858"},{"lat":53.3145635684,"lng":-6.2384173316,"fullname":"Clonskeagh","stopid":"881"},{"lat":53.3167046565,"lng":-6.2391546765,"fullname":"Clonskeagh Hospital","stopid":"882"},{"lat":53.3176851573,"lng":-6.2410355833,"fullname":"Eglinton Road","stopid":"883"},{"lat":53.3199969912,"lng":-6.2442128444,"fullname":"Norwood Park","stopid":"884"},{"lat":53.3212589673,"lng":-6.2462926212,"fullname":"Hollybank Ave Lower","stopid":"885"},{"lat":53.3225973962,"lng":-6.2486846326,"fullname":"Merton Drive","stopid":"886"},{"lat":53.3242077457,"lng":-6.2524618068,"fullname":"Ranelagh","stopid":"887"},{"lat":53.3780271155,"lng":-6.2615921499,"fullname":"Lambay Road","stopid":"89"},{"lat":53.3160725163,"lng":-6.2591581801,"fullname":"Cowper Road","stopid":"893"},{"lat":53.3151931375,"lng":-6.2641919805,"fullname":"Cowper Road","stopid":"894"},{"lat":53.3139322643,"lng":-6.2640180185,"fullname":"Palmeston Villas","stopid":"895"},{"lat":53.3133721496,"lng":-6.2613542468,"fullname":"Palmerston Park","stopid":"896"},{"lat":53.3142996203,"lng":-6.258389846,"fullname":"Palmerston Road","stopid":"897"},{"lat":53.3255834293,"lng":-6.2524956567,"fullname":"Chelmsford Road","stopid":"903"},{"lat":53.3274174409,"lng":-6.2488475157,"fullname":"Appian Way","stopid":"904"},{"lat":53.328810766,"lng":-6.2476343773,"fullname":"Leeson St Upper","stopid":"906"},{"lat":53.3297193589,"lng":-6.2507501086,"fullname":"St Johns Ambulance","stopid":"907"},{"lat":53.3311542855,"lng":-6.2523730342,"fullname":"Grand Parade","stopid":"908"},{"lat":53.3331476599,"lng":-6.2540783639,"fullname":"Fitzwilliam Place","stopid":"909"},{"lat":53.3898318021,"lng":-6.1529011457,"fullname":"Naomh Barr\u00f3g GAA","stopid":"956"},{"lat":53.3909165332,"lng":-6.1637852881,"fullname":"St. Donagh's","stopid":"958"},{"lat":53.3910184657,"lng":-6.166908376,"fullname":"Grange Road","stopid":"959"},{"lat":53.3911576199,"lng":-6.1718793056,"fullname":"Tonlegee Road","stopid":"960"},{"lat":53.39105683,"lng":-6.1764545498,"fullname":"Millwood Villas","stopid":"961"},{"lat":53.3907949286,"lng":-6.1828559742,"fullname":"Limewood","stopid":"962"},{"lat":53.3956824564,"lng":-6.2154896382,"fullname":"Northside SC","stopid":"969"},{"lat":53.3969960429,"lng":-6.2349237993,"fullname":"Aulden Grange","stopid":"972"},{"lat":53.3898045691,"lng":-6.3030304627,"fullname":"Finglas Sports Centre","stopid":"980"},{"lat":53.3897809068,"lng":-6.3070608325,"fullname":"Finglas Garda Stn","stopid":"981"},{"lat":53.3901416743,"lng":-6.3109556922,"fullname":"Mellowes Road","stopid":"983"},{"lat":53.389911388,"lng":-6.3067549496,"fullname":"Finglas Garda Stn","stopid":"984"},{"lat":53.3899247514,"lng":-6.3038977252,"fullname":"Finglas Sports Centre","stopid":"985"},{"lat":53.3902199269,"lng":-6.2993753855,"fullname":"Finglas","stopid":"987"},{"lat":53.397702597,"lng":-6.2292251749,"fullname":"Astro Park","stopid":"993"},{"lat":53.3909514066,"lng":-6.1819170834,"fullname":"Limewood","stopid":"1005"},{"lat":53.3354815055,"lng":-6.2575568807,"fullname":"Earlsfort Terrace","stopid":"1013"},{"lat":53.3327303534,"lng":-6.2599663551,"fullname":"Adelaide Road","stopid":"1015"},{"lat":53.3311593142,"lng":-6.2644145804,"fullname":"South Richmond St","stopid":"1016"},{"lat":53.3292996512,"lng":-6.2644750653,"fullname":"Rathmines Rd Lower","stopid":"1017"},{"lat":53.3275854591,"lng":-6.2646497453,"fullname":"St Mary's College","stopid":"1018"},{"lat":53.3265475976,"lng":-6.2649771177,"fullname":"Military Road","stopid":"1019"},{"lat":53.3251383838,"lng":-6.2651093645,"fullname":"Rathmines","stopid":"1020"},{"lat":53.3213802466,"lng":-6.265652126,"fullname":"Rathmines Rd Upper","stopid":"1021"},{"lat":53.3195217438,"lng":-6.2645566742,"fullname":"Summerville Park","stopid":"1022"},{"lat":53.317046189,"lng":-6.264912289,"fullname":"Rathmines Close","stopid":"1023"},{"lat":53.3158523431,"lng":-6.2650207561,"fullname":"Frankfort Avenue","stopid":"1024"},{"lat":53.3115998655,"lng":-6.262476823,"fullname":"Trinity Hall","stopid":"1025"},{"lat":53.3091057708,"lng":-6.2603270822,"fullname":"Orwell Park","stopid":"1026"},{"lat":53.30873794,"lng":-6.2579109411,"fullname":"Dodder Walk","stopid":"1027"},{"lat":53.3084991106,"lng":-6.2557146811,"fullname":"South Hill","stopid":"1028"},{"lat":53.3082596342,"lng":-6.2553192659,"fullname":"South Hill","stopid":"1062"},{"lat":53.3085720815,"lng":-6.2588631182,"fullname":"Dodder Walk","stopid":"1063"},{"lat":53.3094291383,"lng":-6.2609292206,"fullname":"Dartry Road","stopid":"1064"},{"lat":53.3118290249,"lng":-6.2627826802,"fullname":"Trinity Hall","stopid":"1065"},{"lat":53.3137534806,"lng":-6.2640853083,"fullname":"Rathmines Rd Upper","stopid":"1066"},{"lat":53.3170507712,"lng":-6.2652273064,"fullname":"Rathmines Close","stopid":"1067"},{"lat":53.3205584447,"lng":-6.2653852367,"fullname":"Church Avenue","stopid":"1068"},{"lat":53.3232852636,"lng":-6.2656198954,"fullname":"Swan Centre","stopid":"1069"},{"lat":53.324980184,"lng":-6.2653559829,"fullname":"Rathmines","stopid":"1070"},{"lat":53.3272180362,"lng":-6.2647247117,"fullname":"St Mary's College","stopid":"1071"},{"lat":53.3310269733,"lng":-6.264585114,"fullname":"South Richmond St","stopid":"1072"},{"lat":53.3337954595,"lng":-6.2639772007,"fullname":"Harcourt Luas","stopid":"1074"},{"lat":53.3231305919,"lng":-6.2654910626,"fullname":"Swan Centre","stopid":"1076"},{"lat":53.3215729885,"lng":-6.266544985,"fullname":"Rathmines Garda Stn","stopid":"1077"},{"lat":53.3194127649,"lng":-6.2688090704,"fullname":"Rathgar Place","stopid":"1078"},{"lat":53.3166546242,"lng":-6.2707518743,"fullname":"Frankfort Avenue","stopid":"1079"},{"lat":53.3149091987,"lng":-6.2718730635,"fullname":"Auburn Villas","stopid":"1080"},{"lat":53.3126497029,"lng":-6.2734951735,"fullname":"Rathgar Village","stopid":"1081"},{"lat":53.3116759487,"lng":-6.275770632,"fullname":"Terenure Road East","stopid":"1082"},{"lat":53.3111455613,"lng":-6.2782532531,"fullname":"Brighton Road","stopid":"1083"},{"lat":53.3100994852,"lng":-6.282377314,"fullname":"St Joseph's BNS","stopid":"1085"},{"lat":53.3096695705,"lng":-6.285606083,"fullname":"Terenure Road West","stopid":"1086"},{"lat":53.3103351138,"lng":-6.2893912601,"fullname":"Greenlea Rd","stopid":"1087"},{"lat":53.3109735888,"lng":-6.2931776326,"fullname":"Parkmore Drive","stopid":"1088"},{"lat":53.3116555855,"lng":-6.297502661,"fullname":"Lavarna Grove","stopid":"1089"},{"lat":53.3118906499,"lng":-6.298228688,"fullname":"Terenure Road West","stopid":"1117"},{"lat":53.3113669928,"lng":-6.2949178283,"fullname":"Hazelbrook Road","stopid":"1118"},{"lat":53.3109356902,"lng":-6.2924137634,"fullname":"Parkmore Drive","stopid":"1119"},{"lat":53.3101981052,"lng":-6.2879860593,"fullname":"Terenure Garda Stn","stopid":"1120"},{"lat":53.3090015976,"lng":-6.2854077479,"fullname":"Templeogue Road","stopid":"1121"},{"lat":53.3072196343,"lng":-6.2883753525,"fullname":"Rathdown Park","stopid":"1122"},{"lat":53.3055770247,"lng":-6.2910370301,"fullname":"Lakelands Park","stopid":"1123"},{"lat":53.3041728177,"lng":-6.2934038975,"fullname":"Terenure College","stopid":"1124"},{"lat":53.3023902202,"lng":-6.2963408423,"fullname":"Bushy Park House","stopid":"1159"},{"lat":53.3043935295,"lng":-6.2931250017,"fullname":"Terenure College","stopid":"1160"},{"lat":53.3060631361,"lng":-6.2904624011,"fullname":"Lakelands Park","stopid":"1161"},{"lat":53.3077322506,"lng":-6.2877695971,"fullname":"Rathdown Park","stopid":"1162"},{"lat":53.3088733211,"lng":-6.2858630918,"fullname":"Terenure Library","stopid":"1163"},{"lat":53.3104116361,"lng":-6.2815844009,"fullname":"Terenure Road East","stopid":"1164"},{"lat":53.3117124366,"lng":-6.2764295039,"fullname":"Brighton Road","stopid":"1165"},{"lat":53.3138905068,"lng":-6.2729047841,"fullname":"Winton Avenue","stopid":"1166"},{"lat":53.3159449092,"lng":-6.2713959484,"fullname":"Garville Avenue","stopid":"1167"},{"lat":53.3179291684,"lng":-6.2700098826,"fullname":"Spire View Lane","stopid":"1168"},{"lat":53.3200562646,"lng":-6.2685578599,"fullname":"Rathmines Park","stopid":"1169"},{"lat":53.3216895475,"lng":-6.2665252488,"fullname":"Rathmines Garda Stn","stopid":"1170"},{"lat":53.350317687,"lng":-6.2542629491,"fullname":"Gardiner Street Lwr","stopid":"1171"},{"lat":53.3517433498,"lng":-6.2552562173,"fullname":"Railway Street","stopid":"1172"},{"lat":53.3537055684,"lng":-6.2566783233,"fullname":"Gardiner Street Lwr","stopid":"1173"},{"lat":53.3561865815,"lng":-6.2585451254,"fullname":"Mountjoy Sq West","stopid":"1174"},{"lat":53.3584131945,"lng":-6.2608431821,"fullname":"Gardiner Street Upr","stopid":"1175"},{"lat":53.3993550471,"lng":-6.2218778032,"fullname":"Coolock Lane Park","stopid":"1176"},{"lat":53.4008973631,"lng":-6.2252574828,"fullname":"Clonshaugh Ind Est W","stopid":"1177"},{"lat":53.4034534097,"lng":-6.2188492428,"fullname":"Clonshaugh Ind Est N","stopid":"1178"},{"lat":53.3999311496,"lng":-6.2189211831,"fullname":"Clonshaugh Ind Est E","stopid":"1179"},{"lat":53.3508599228,"lng":-6.253850228,"fullname":"Moland Street","stopid":"1184"},{"lat":53.3763670141,"lng":-6.2215130465,"fullname":"Oak Road","stopid":"1185"},{"lat":53.3776431058,"lng":-6.2263299379,"fullname":"Belton Park Road","stopid":"1186"},{"lat":53.3786075087,"lng":-6.2313554411,"fullname":"Celtic Park Road","stopid":"1187"},{"lat":53.3800184911,"lng":-6.2355960832,"fullname":"Grace Park Heights","stopid":"1188"},{"lat":53.3801561172,"lng":-6.2357858078,"fullname":"Grace Park Heights","stopid":"1190"},{"lat":53.3792171884,"lng":-6.2330738402,"fullname":"Grace Park Meadows","stopid":"1191"},{"lat":53.3786331968,"lng":-6.2306629311,"fullname":"Celtic Park Road","stopid":"1192"},{"lat":53.3779921991,"lng":-6.2274427688,"fullname":"Grace Park Meadows","stopid":"1193"},{"lat":53.3775262086,"lng":-6.2251172819,"fullname":"Belton Park Road","stopid":"1194"},{"lat":53.3763899322,"lng":-6.2212415396,"fullname":"Oak Road","stopid":"1195"},{"lat":53.3780410338,"lng":-6.2144387216,"fullname":"Elm Mount Road","stopid":"1196"},{"lat":53.3792322772,"lng":-6.211758333,"fullname":"Killester Avenue","stopid":"1197"},{"lat":53.3825121952,"lng":-6.2069155907,"fullname":"Mornington Grove","stopid":"1198"},{"lat":53.3849844628,"lng":-6.2027676145,"fullname":"Mask Avenue","stopid":"1199"},{"lat":53.3869626487,"lng":-6.2010304891,"fullname":"Chanel College","stopid":"1200"},{"lat":53.3907898126,"lng":-6.1961478429,"fullname":"Brookville Cresent","stopid":"1201"},{"lat":53.3925013827,"lng":-6.1934290504,"fullname":"Newtown Cottages","stopid":"1202"},{"lat":53.3967263536,"lng":-6.1875356703,"fullname":"Newtown Road","stopid":"1203"},{"lat":53.4015026049,"lng":-6.1818582293,"fullname":"Clare Hall","stopid":"1205"},{"lat":53.3997058969,"lng":-6.1842809197,"fullname":"Belcamp Lane","stopid":"1218"},{"lat":53.3813021271,"lng":-6.2083343921,"fullname":"Danieli Road","stopid":"1219"},{"lat":53.3787625063,"lng":-6.2121989015,"fullname":"Killester Avenue","stopid":"1220"},{"lat":53.3768165001,"lng":-6.2160982541,"fullname":"Mayfield Park","stopid":"1221"},{"lat":53.3840661618,"lng":-6.2068502818,"fullname":"Ardlea Road","stopid":"1222"},{"lat":53.3852506199,"lng":-6.2085143524,"fullname":"Chanel Avenue","stopid":"1223"},{"lat":53.3866441578,"lng":-6.2109364912,"fullname":"Maryfield Crescent","stopid":"1224"},{"lat":53.3868593792,"lng":-6.2139042693,"fullname":"Maryfield Drive","stopid":"1225"},{"lat":53.3885824619,"lng":-6.2149296762,"fullname":"Ardmore Drive","stopid":"1226"},{"lat":53.3911373108,"lng":-6.2150783661,"fullname":"Castlekevin Road","stopid":"1227"},{"lat":53.3924289765,"lng":-6.2185127373,"fullname":"Kilbarron Road","stopid":"1228"},{"lat":53.3943116012,"lng":-6.2254262893,"fullname":"Kilbarron Drive","stopid":"1229"},{"lat":53.3954889983,"lng":-6.2278434264,"fullname":"Castletimon Road","stopid":"1231"},{"lat":53.3952854835,"lng":-6.23048341,"fullname":"Castletimon Park","stopid":"1232"},{"lat":53.3943619874,"lng":-6.2312435009,"fullname":"Castletimon Drive","stopid":"1233"},{"lat":53.3946878729,"lng":-6.2326133967,"fullname":"Ballyshannon Avenue","stopid":"1234"},{"lat":53.3947366847,"lng":-6.2256040842,"fullname":"Kilbarron Road","stopid":"1235"},{"lat":53.39267868,"lng":-6.2189834723,"fullname":"Cromcastle Avenue","stopid":"1237"},{"lat":53.3915662234,"lng":-6.214910057,"fullname":"Kilmore Avenue","stopid":"1238"},{"lat":53.3890041899,"lng":-6.2148819578,"fullname":"St John of Gods NS","stopid":"1239"},{"lat":53.386818428,"lng":-6.2111697323,"fullname":"Maryfield Crescent","stopid":"1240"},{"lat":53.3858794294,"lng":-6.209089308,"fullname":"Chanel Avenue","stopid":"1241"},{"lat":53.3844919489,"lng":-6.2070729228,"fullname":"Ardbeg Road","stopid":"1242"},{"lat":53.3949003131,"lng":-6.1999137413,"fullname":"Greencastle Avenue","stopid":"1243"},{"lat":53.3929072416,"lng":-6.220447503,"fullname":"Cromcastle Green","stopid":"1244"},{"lat":53.3979972687,"lng":-6.2062194096,"fullname":"Glin Avenue","stopid":"1245"},{"lat":53.3934932335,"lng":-6.2229792886,"fullname":"Kilbarron Park","stopid":"1246"},{"lat":53.3950810945,"lng":-6.1999812972,"fullname":"Greencastle Road","stopid":"1247"},{"lat":53.3929893359,"lng":-6.1971675234,"fullname":"Coolock Ind Estate","stopid":"1248"},{"lat":53.3951809649,"lng":-6.2012402174,"fullname":"Coolock Drive","stopid":"1249"},{"lat":53.3937390061,"lng":-6.2075563458,"fullname":"Bunratty Road","stopid":"1250"},{"lat":53.3934573359,"lng":-6.2223793176,"fullname":"St Luke's Church","stopid":"1251"},{"lat":53.3938639431,"lng":-6.2146935925,"fullname":"Tranquility Grove","stopid":"1253"},{"lat":53.3951173598,"lng":-6.2113629964,"fullname":"Bunratty Road","stopid":"1254"},{"lat":53.3943535025,"lng":-6.2089740732,"fullname":"Adare Park","stopid":"1255"},{"lat":53.3936309458,"lng":-6.20694438,"fullname":"Bunratty Avenue","stopid":"1256"},{"lat":53.3981874225,"lng":-6.1908271358,"fullname":"Priorswood Road","stopid":"1258"},{"lat":53.3985904098,"lng":-6.1948854845,"fullname":"The Link Road","stopid":"1259"},{"lat":53.4001778029,"lng":-6.1988186835,"fullname":"Ferrycarrig Green","stopid":"1260"},{"lat":53.4020042292,"lng":-6.2049078162,"fullname":"Moat Avenue","stopid":"1262"},{"lat":53.3982215297,"lng":-6.1907053814,"fullname":"Marigold Avenue","stopid":"1265"},{"lat":53.4020554115,"lng":-6.2047251844,"fullname":"Priorswood Road","stopid":"1266"},{"lat":53.4008555066,"lng":-6.2002488701,"fullname":"Ferrycarrig Park","stopid":"1267"},{"lat":53.3998942675,"lng":-6.1978982429,"fullname":"Belcamp Avenue","stopid":"1268"},{"lat":53.3984289595,"lng":-6.193719317,"fullname":"Marigold Road","stopid":"1269"},{"lat":53.3964970027,"lng":-6.1872296238,"fullname":"Newtown Road","stopid":"1270"},{"lat":53.3928823822,"lng":-6.1918791857,"fullname":"Newtown Cottages","stopid":"1272"},{"lat":53.3911092146,"lng":-6.1952772887,"fullname":"Coolock Leisureplex","stopid":"1273"},{"lat":53.388938817,"lng":-6.1979701937,"fullname":"St Brendans Church","stopid":"1274"},{"lat":53.3855857653,"lng":-6.202110858,"fullname":"Mask Avenue","stopid":"1275"},{"lat":53.3843305541,"lng":-6.2029154287,"fullname":"Mask Park","stopid":"1276"},{"lat":53.3826814602,"lng":-6.2062169636,"fullname":"Mornington Grove","stopid":"1277"},{"lat":53.3442366224,"lng":-6.2613001181,"fullname":"College Green","stopid":"1278"},{"lat":53.3442604936,"lng":-6.2617046665,"fullname":"College Green","stopid":"1279"},{"lat":53.4001962884,"lng":-6.3031432926,"fullname":"McKelvey Avenue","stopid":"1280"},{"lat":53.3423417959,"lng":-6.2645010827,"fullname":"S Great George's St","stopid":"1282"},{"lat":53.3418087219,"lng":-6.2649282295,"fullname":"S Great George's St","stopid":"1283"},{"lat":53.338128351,"lng":-6.2658735572,"fullname":"Redmond's Hill","stopid":"1284"},{"lat":53.3343784056,"lng":-6.2651247543,"fullname":"Camden Street Lower","stopid":"1285"},{"lat":53.3324996495,"lng":-6.2657265348,"fullname":"Harrington Street","stopid":"1286"},{"lat":53.3324783726,"lng":-6.2661177907,"fullname":"Synge Street","stopid":"1287"},{"lat":53.3323227536,"lng":-6.2696376223,"fullname":"Victoria Street","stopid":"1288"},{"lat":53.3321293613,"lng":-6.2730388328,"fullname":"Longwood Avenue","stopid":"1289"},{"lat":53.3307310457,"lng":-6.2751673188,"fullname":"Clanbrassil St Upper","stopid":"1290"},{"lat":53.3284466112,"lng":-6.2763104414,"fullname":"Harold's Cross Road","stopid":"1291"},{"lat":53.3256246051,"lng":-6.278195704,"fullname":"Harold's Cross Park","stopid":"1292"},{"lat":53.3228603639,"lng":-6.2791026297,"fullname":"Parkview Avenue","stopid":"1293"},{"lat":53.3206000263,"lng":-6.2788033063,"fullname":"Lady of the Rosary","stopid":"1294"},{"lat":53.3179148923,"lng":-6.2795868171,"fullname":"Kenilworth Park","stopid":"1295"},{"lat":53.3155627461,"lng":-6.2816476229,"fullname":"Mount Tallant Avenue","stopid":"1296"},{"lat":53.3124096124,"lng":-6.2823896141,"fullname":"Whitton Road","stopid":"1297"},{"lat":53.3107469925,"lng":-6.283026651,"fullname":"Terenure","stopid":"1298"},{"lat":53.3083957028,"lng":-6.2839013564,"fullname":"Rathfarnham Road","stopid":"1299"},{"lat":53.3061507464,"lng":-6.2834211767,"fullname":"Rathdown Park","stopid":"1300"},{"lat":53.3074174244,"lng":-6.28400062,"fullname":"War Memorial Hall","stopid":"1335"},{"lat":53.308900906,"lng":-6.2840311597,"fullname":"Terenure","stopid":"1336"},{"lat":53.3111790374,"lng":-6.283069341,"fullname":"Terenure Road North","stopid":"1337"},{"lat":53.3124303863,"lng":-6.2825838843,"fullname":"Whitton Road","stopid":"1338"},{"lat":53.3150238623,"lng":-6.282299647,"fullname":"Harold's Cross Road","stopid":"1339"},{"lat":53.3164701423,"lng":-6.2809957809,"fullname":"Mount Tallant Avenue","stopid":"1340"},{"lat":53.3192275895,"lng":-6.2789936358,"fullname":"Kenilworth Park","stopid":"1341"},{"lat":53.3213454991,"lng":-6.2793887592,"fullname":"Lady of the Rosary","stopid":"1342"},{"lat":53.322667285,"lng":-6.2794256441,"fullname":"Harold's Cross Park","stopid":"1343"},{"lat":53.3271710644,"lng":-6.2776079634,"fullname":"St Claire's NS","stopid":"1344"},{"lat":53.3287960763,"lng":-6.2762362964,"fullname":"Le Vere Terrace","stopid":"1345"},{"lat":53.3311830099,"lng":-6.2753442727,"fullname":"Clanbrassil St Upper","stopid":"1347"},{"lat":53.3322495354,"lng":-6.2738898328,"fullname":"Spencer St South","stopid":"1348"},{"lat":53.3323857279,"lng":-6.2708813229,"fullname":"Carlisle Street","stopid":"1349"},{"lat":53.3325610928,"lng":-6.2674808118,"fullname":"Harrington Street","stopid":"1350"},{"lat":53.3344454316,"lng":-6.2654073338,"fullname":"Camden Street Lower","stopid":"1352"},{"lat":53.3360095336,"lng":-6.265418938,"fullname":"Pleasants Street","stopid":"1353"},{"lat":53.3390480889,"lng":-6.2660765149,"fullname":"Aungier Street","stopid":"1354"},{"lat":53.3400962426,"lng":-6.2658387554,"fullname":"Whitefriars Street","stopid":"1355"},{"lat":53.3425678944,"lng":-6.2645970302,"fullname":"Exchequer Street","stopid":"1357"},{"lat":53.3443047134,"lng":-6.2628893894,"fullname":"Dame Street","stopid":"1358"},{"lat":53.3443994064,"lng":-6.2613685904,"fullname":"College Green","stopid":"1359"},{"lat":53.3319833878,"lng":-6.2766182775,"fullname":"Raymond Street","stopid":"1360"},{"lat":53.3312039604,"lng":-6.2799078735,"fullname":"National Stadium","stopid":"1362"},{"lat":53.3318459312,"lng":-6.285167265,"fullname":"St Anne's Road S","stopid":"1363"},{"lat":53.3323458739,"lng":-6.2880601203,"fullname":"Dolphin Avenue","stopid":"1364"},{"lat":53.3329015319,"lng":-6.290455313,"fullname":"Dolphins Barn Church","stopid":"1365"},{"lat":53.3351498677,"lng":-6.2943145906,"fullname":"St Andrews Centre","stopid":"1366"},{"lat":53.335685293,"lng":-6.2965606635,"fullname":"Rialto Church","stopid":"1367"},{"lat":53.338867215,"lng":-6.3022455204,"fullname":"Mayfield Road","stopid":"1369"},{"lat":53.3391885808,"lng":-6.3052512456,"fullname":"Hybreasal House","stopid":"1370"},{"lat":53.3388761645,"lng":-6.3079367064,"fullname":"Suir Road","stopid":"1371"},{"lat":53.3381036946,"lng":-6.3098744464,"fullname":"Goldenbridge Avenue","stopid":"1372"},{"lat":53.3377747591,"lng":-6.3120348655,"fullname":"Stephen's Road","stopid":"1373"},{"lat":53.3392177103,"lng":-6.3130140712,"fullname":"Southern Cross Ave","stopid":"1374"},{"lat":53.3395561606,"lng":-6.3121597319,"fullname":"Bulfin Road","stopid":"1375"},{"lat":53.3395079106,"lng":-6.3087526718,"fullname":"South Circular Road","stopid":"1376"},{"lat":53.3391633646,"lng":-6.3047416553,"fullname":"South Circular Road","stopid":"1377"},{"lat":53.3388278749,"lng":-6.3013760827,"fullname":"Mayfield Road","stopid":"1378"},{"lat":53.3373397014,"lng":-6.2991226532,"fullname":"Rialto Luas","stopid":"1379"},{"lat":53.3356410023,"lng":-6.2959767991,"fullname":"Rialto Church","stopid":"1380"},{"lat":53.3351237466,"lng":-6.2937450263,"fullname":"St Andrews Centre","stopid":"1381"},{"lat":53.3331731707,"lng":-6.2905946021,"fullname":"Dolphins Barn Church","stopid":"1382"},{"lat":53.3322710784,"lng":-6.2866066629,"fullname":"Dolphin Avenue","stopid":"1383"},{"lat":53.3313561982,"lng":-6.2823641538,"fullname":"Dufferin Avenue","stopid":"1384"},{"lat":53.3318004003,"lng":-6.2782622718,"fullname":"Griffith College","stopid":"1385"},{"lat":53.3295526186,"lng":-6.284448499,"fullname":"Clogher Road","stopid":"1386"},{"lat":53.3280405494,"lng":-6.2868062392,"fullname":"Aughavanagh Road","stopid":"1387"},{"lat":53.3267732721,"lng":-6.2911957887,"fullname":"Rutland Avenue","stopid":"1388"},{"lat":53.3259359421,"lng":-6.2954928715,"fullname":"Pearse College","stopid":"1389"},{"lat":53.3249002682,"lng":-6.3149601372,"fullname":"Crumlin Pool","stopid":"1396"},{"lat":53.3250914014,"lng":-6.3138567001,"fullname":"Kildare Road","stopid":"1397"},{"lat":53.3253013794,"lng":-6.3102754507,"fullname":"Windmill Road","stopid":"1398"},{"lat":53.3251428006,"lng":-6.3054327031,"fullname":"Monasterboice Road","stopid":"1399"},{"lat":53.3253968159,"lng":-6.2986519848,"fullname":"Clogher Road","stopid":"1401"},{"lat":53.3259879311,"lng":-6.2959862197,"fullname":"Pearse College","stopid":"1402"},{"lat":53.3271540649,"lng":-6.2895441334,"fullname":"Rutland Avenue","stopid":"1403"},{"lat":53.3282005181,"lng":-6.2866797205,"fullname":"Aughavanagh Road","stopid":"1404"},{"lat":53.3298216746,"lng":-6.2844076737,"fullname":"Parnell Road","stopid":"1405"},{"lat":53.3331529315,"lng":-6.2916915268,"fullname":"Dolphin's Barn","stopid":"1406"},{"lat":53.3315385028,"lng":-6.2944436769,"fullname":"Crumlin Road","stopid":"1407"},{"lat":53.3303667448,"lng":-6.2973581556,"fullname":"Loreto College","stopid":"1409"},{"lat":53.3314169224,"lng":-6.2997787307,"fullname":"Keeper Road","stopid":"1410"},{"lat":53.3320510264,"lng":-6.3032820042,"fullname":"Brickfield Drive","stopid":"1411"},{"lat":53.3326816543,"lng":-6.3059146427,"fullname":"Slievenamon Road","stopid":"1412"},{"lat":53.3334413912,"lng":-6.3087824942,"fullname":"Brickfields Park","stopid":"1413"},{"lat":53.3333476065,"lng":-6.3123148014,"fullname":"Benbulbin Road","stopid":"1414"},{"lat":53.3324432485,"lng":-6.3163745209,"fullname":"Sperrin Road","stopid":"1415"},{"lat":53.3310322128,"lng":-6.319568119,"fullname":"Lady Of Mercy School","stopid":"1417"},{"lat":53.3300297592,"lng":-6.3230607701,"fullname":"Cooley Road","stopid":"1418"},{"lat":53.3277177272,"lng":-6.3229112431,"fullname":"Brandon Road","stopid":"1419"},{"lat":53.324999489,"lng":-6.3194449219,"fullname":"Crumlin Hospital","stopid":"1423"},{"lat":53.3256625126,"lng":-6.3167466215,"fullname":"Crumlin Hospital","stopid":"1424"},{"lat":53.327013172,"lng":-6.3181947535,"fullname":"Cooley Road","stopid":"1425"},{"lat":53.3292748788,"lng":-6.3224297712,"fullname":"Curlew Road","stopid":"1426"},{"lat":53.3302711584,"lng":-6.3223306194,"fullname":"Mourne Road","stopid":"1427"},{"lat":53.3313588786,"lng":-6.319149884,"fullname":"Lady of Mercy School","stopid":"1428"},{"lat":53.3325932072,"lng":-6.3161734193,"fullname":"Sperrin Road","stopid":"1429"},{"lat":53.3335737955,"lng":-6.3111496865,"fullname":"Belbulbin Road","stopid":"1430"},{"lat":53.3334987403,"lng":-6.3083898257,"fullname":"Brickfields Park","stopid":"1432"},{"lat":53.3325721532,"lng":-6.305798862,"fullname":"Slievenamon Road","stopid":"1433"},{"lat":53.3319924476,"lng":-6.3023233792,"fullname":"Keeper Road","stopid":"1434"},{"lat":53.3313880463,"lng":-6.2990141325,"fullname":"Keeper Road","stopid":"1435"},{"lat":53.3308849577,"lng":-6.2965117199,"fullname":"Herberton Road","stopid":"1436"},{"lat":53.3363829769,"lng":-6.2794141362,"fullname":"St Thomas Road","stopid":"1438"},{"lat":53.3340584157,"lng":-6.2827660992,"fullname":"Rutledge Terrace","stopid":"1439"},{"lat":53.3319900594,"lng":-6.2833146522,"fullname":"Donore Avenue","stopid":"1440"},{"lat":53.324874901,"lng":-6.3030263332,"fullname":"Bangor Road","stopid":"1441"},{"lat":53.3251668742,"lng":-6.3071281548,"fullname":"Clonard Road","stopid":"1442"},{"lat":53.3451293907,"lng":-6.2695395586,"fullname":"Civic Offices","stopid":"1443"},{"lat":53.3450180038,"lng":-6.2742601909,"fullname":"Merchant's Quay","stopid":"1444"},{"lat":53.3456784103,"lng":-6.2782888396,"fullname":"Usher's Quay","stopid":"1445"},{"lat":53.3466296445,"lng":-6.2881787496,"fullname":"Victoria Quay","stopid":"1447"},{"lat":53.34815283,"lng":-6.2978960947,"fullname":"Phoenix Park Gate","stopid":"1449"},{"lat":53.3481554042,"lng":-6.3018614131,"fullname":"Conyngham Road","stopid":"1450"},{"lat":53.3482782789,"lng":-6.305446445,"fullname":"Bridgewater House","stopid":"1451"},{"lat":53.3454209055,"lng":-6.3080379994,"fullname":"Islandbridge","stopid":"1452"},{"lat":53.3345361692,"lng":-6.3067571014,"fullname":"Galtymore Road","stopid":"1453"},{"lat":53.337775553,"lng":-6.3076499103,"fullname":"Suir Road Luas","stopid":"1454"},{"lat":53.3353851151,"lng":-6.3057774603,"fullname":"Slievenamon Road","stopid":"1455"},{"lat":53.3348733091,"lng":-6.3089811069,"fullname":"Good Counsel GAA","stopid":"1456"},{"lat":53.3353026587,"lng":-6.3126430383,"fullname":"Benbulbin Road","stopid":"1457"},{"lat":53.3347706199,"lng":-6.3169735748,"fullname":"Davitt House","stopid":"1458"},{"lat":53.3340633154,"lng":-6.3197192372,"fullname":"Drimnagh CU","stopid":"1459"},{"lat":53.3323561008,"lng":-6.3210325842,"fullname":"Carrow Road","stopid":"1460"},{"lat":53.3304629316,"lng":-6.3238245198,"fullname":"Galtymore Park","stopid":"1462"},{"lat":53.3306239949,"lng":-6.3237731617,"fullname":"Galtymore Road","stopid":"1463"},{"lat":53.3348988015,"lng":-6.3165030367,"fullname":"Davitt House","stopid":"1464"},{"lat":53.3347967645,"lng":-6.3086537872,"fullname":"Good Counsel GAA","stopid":"1465"},{"lat":53.3345289258,"lng":-6.3062468536,"fullname":"Galtymore Drive","stopid":"1466"},{"lat":53.335657376,"lng":-6.3059618779,"fullname":"Slievenamon Road","stopid":"1467"},{"lat":53.3375666016,"lng":-6.3074929995,"fullname":"Suir Road Luas","stopid":"1468"},{"lat":53.3352591593,"lng":-6.3133805382,"fullname":"Benbulbin Road","stopid":"1469"},{"lat":53.3455323202,"lng":-6.3082889205,"fullname":"Islandbridge","stopid":"1471"},{"lat":53.348429468,"lng":-6.3059661697,"fullname":"Conyngham Road","stopid":"1472"},{"lat":53.3483059785,"lng":-6.298550899,"fullname":"Phoenix Park Gate","stopid":"1473"},{"lat":53.347947916,"lng":-6.2923617046,"fullname":"Parkgate Street","stopid":"1474"},{"lat":53.3470736856,"lng":-6.2846762754,"fullname":"Sarsfield Quay","stopid":"1476"},{"lat":53.3456460889,"lng":-6.2729431267,"fullname":"Four Courts","stopid":"1478"},{"lat":53.34591596,"lng":-6.2692373442,"fullname":"Ormond Quay Upper","stopid":"1479"},{"lat":53.3457659647,"lng":-6.2706702977,"fullname":"Ormond Quay Upper","stopid":"1480"},{"lat":53.3650538686,"lng":-6.2398960972,"fullname":"Melrose Avenue","stopid":"1481"},{"lat":53.3717085782,"lng":-6.2364806456,"fullname":"Marino Institute","stopid":"1482"},{"lat":53.3636977091,"lng":-6.2399670293,"fullname":"Philipsburgh Avenue","stopid":"1484"},{"lat":53.3640458177,"lng":-6.2398024169,"fullname":"Philipsburgh Avenue","stopid":"1485"},{"lat":53.3709747783,"lng":-6.238524809,"fullname":"Morrogh Terrace","stopid":"1486"},{"lat":53.3718192549,"lng":-6.23667145,"fullname":"Marino Institute","stopid":"1487"},{"lat":53.3710888554,"lng":-6.2346877702,"fullname":"Turlogh Parade","stopid":"1488"},{"lat":53.3701586652,"lng":-6.2319610076,"fullname":"Marino Church","stopid":"1489"},{"lat":53.3688768217,"lng":-6.2285576617,"fullname":"\u00c1rd Scoil R\u00eds","stopid":"1490"},{"lat":53.3684677619,"lng":-6.2276429098,"fullname":"Griffith Avenue","stopid":"1491"},{"lat":53.3702573904,"lng":-6.2325580572,"fullname":"Marino Church","stopid":"1492"},{"lat":53.3712134045,"lng":-6.2352086272,"fullname":"Turlogh Parade","stopid":"1493"},{"lat":53.3706730149,"lng":-6.2357419416,"fullname":"Croydon Park","stopid":"1494"},{"lat":53.3687559406,"lng":-6.2355656974,"fullname":"Croydon Park Avenue","stopid":"1495"},{"lat":53.3671481166,"lng":-6.2338138383,"fullname":"Marino Green","stopid":"1496"},{"lat":53.3657794887,"lng":-6.2372965868,"fullname":"Brian Road","stopid":"1499"},{"lat":53.3510395889,"lng":-6.2501625778,"fullname":"Connolly","stopid":"1500"},{"lat":53.3540289632,"lng":-6.2578969849,"fullname":"Parnell Street","stopid":"1505"},{"lat":53.3667778214,"lng":-6.2723739092,"fullname":"Finglas Road","stopid":"1506"},{"lat":53.3683905203,"lng":-6.2745026916,"fullname":"St Vincent's School","stopid":"1507"},{"lat":53.3699109023,"lng":-6.2783335512,"fullname":"Glasnevin Cemetery","stopid":"1508"},{"lat":53.372925834,"lng":-6.2842236605,"fullname":"Slaney Road","stopid":"1509"},{"lat":53.3769069295,"lng":-6.2873102372,"fullname":"Ballyboggan Road","stopid":"1510"},{"lat":53.3782345232,"lng":-6.2877529846,"fullname":"Tolka Vale","stopid":"1511"},{"lat":53.3821743223,"lng":-6.2917288355,"fullname":"Prospect Hill","stopid":"1512"},{"lat":53.3894651562,"lng":-6.3000219145,"fullname":"Drogheda Mall","stopid":"1514"},{"lat":53.3661143161,"lng":-6.2331954182,"fullname":"Marino Park","stopid":"1515"},{"lat":53.3906003885,"lng":-6.3116141241,"fullname":"Kildonan Road","stopid":"1518"},{"lat":53.3924448696,"lng":-6.311751618,"fullname":"Kildonan Park","stopid":"1519"},{"lat":53.3939201989,"lng":-6.3118435866,"fullname":"Barry Road","stopid":"1520"},{"lat":53.3972212993,"lng":-6.3107504941,"fullname":"Plunkett Green","stopid":"1521"},{"lat":53.3978788506,"lng":-6.3095815571,"fullname":"Plunkett Avenue","stopid":"1523"},{"lat":53.3955562649,"lng":-6.3105908871,"fullname":"Barry Road","stopid":"1524"},{"lat":53.3940692958,"lng":-6.3115820616,"fullname":"Casement Drive","stopid":"1525"},{"lat":53.392306937,"lng":-6.3115315366,"fullname":"Kildonan Park","stopid":"1526"},{"lat":53.3561954282,"lng":-6.2940000257,"fullname":"St David's Terrace","stopid":"1528"},{"lat":53.3884588269,"lng":-6.2981526069,"fullname":"Finglas Village","stopid":"1529"},{"lat":53.383743664,"lng":-6.2933647409,"fullname":"Clearwater SC","stopid":"1531"},{"lat":53.3817441172,"lng":-6.2905585009,"fullname":"Prospect Hill","stopid":"1532"},{"lat":53.3789678848,"lng":-6.287498088,"fullname":"Tolka Vale","stopid":"1533"},{"lat":53.3753328392,"lng":-6.2859756029,"fullname":"Ballyboggan Road","stopid":"1534"},{"lat":53.3723059581,"lng":-6.2823699439,"fullname":"The Willows","stopid":"1535"},{"lat":53.3695033972,"lng":-6.2768772328,"fullname":"Glasnevin Cemetery","stopid":"1536"},{"lat":53.368066205,"lng":-6.2732083989,"fullname":"St Vincent's School","stopid":"1537"},{"lat":53.3844741413,"lng":-6.2947937549,"fullname":"Clearwater SC","stopid":"1538"},{"lat":53.3831357991,"lng":-6.2791980157,"fullname":"Glasanaon Road","stopid":"1539"},{"lat":53.38434031,"lng":-6.2842006288,"fullname":"Johnstown Park","stopid":"1540"},{"lat":53.3952411658,"lng":-6.3016863664,"fullname":"McKee Avenue Est","stopid":"1547"},{"lat":53.396110145,"lng":-6.3027494933,"fullname":"Kylemore Bakery","stopid":"1548"},{"lat":53.3974326561,"lng":-6.3066367831,"fullname":"Plunkett Road","stopid":"1549"},{"lat":53.399817511,"lng":-6.3030530945,"fullname":"McKelvey Avenue","stopid":"1558"},{"lat":53.3973411213,"lng":-6.306520115,"fullname":"Plunkett Road","stopid":"1559"},{"lat":53.3970075424,"lng":-6.3045483815,"fullname":"St Margaret's Road","stopid":"1560"},{"lat":53.3844074206,"lng":-6.2838671966,"fullname":"Johnstown Park","stopid":"1566"},{"lat":53.384013957,"lng":-6.2802600218,"fullname":"Griffith Drive","stopid":"1567"},{"lat":53.3840241647,"lng":-6.3124606624,"fullname":"Wellmount Drive","stopid":"1573"},{"lat":53.385593998,"lng":-6.3128796471,"fullname":"Cardiffsbridge SC","stopid":"1574"},{"lat":53.3870661426,"lng":-6.312746258,"fullname":"Col\u00e1iste \u00cdde","stopid":"1575"},{"lat":53.3893174055,"lng":-6.3130481247,"fullname":"Cappagh Road","stopid":"1576"},{"lat":53.3898858081,"lng":-6.3157470169,"fullname":"Abbottstown Road","stopid":"1577"},{"lat":53.3903851295,"lng":-6.3180126774,"fullname":"Ratoath Drive","stopid":"1578"},{"lat":53.3935215772,"lng":-6.3237381766,"fullname":"Cappagh Hospital","stopid":"1579"},{"lat":53.3927698846,"lng":-6.3220535923,"fullname":"Cappagh Road","stopid":"1582"},{"lat":53.38988546,"lng":-6.3150854821,"fullname":"Abbottstown Road","stopid":"1584"},{"lat":53.3887680197,"lng":-6.3123331449,"fullname":"Cardiffsbridge Road","stopid":"1585"},{"lat":53.3865250406,"lng":-6.3126173181,"fullname":"Col\u00e1iste \u00cdde","stopid":"1586"},{"lat":53.3834664303,"lng":-6.3117912065,"fullname":"Wellmount Drive","stopid":"1587"},{"lat":53.3871387919,"lng":-6.2994982132,"fullname":"Wellmount Road","stopid":"1591"},{"lat":53.3797209189,"lng":-6.2892416052,"fullname":"Tolka Valley Road","stopid":"1592"},{"lat":53.3789147734,"lng":-6.2944597494,"fullname":"Tolka Valley Park","stopid":"1593"},{"lat":53.3807131944,"lng":-6.2976648452,"fullname":"St Helena's Road","stopid":"1594"},{"lat":53.3807395003,"lng":-6.2976186997,"fullname":"St Helena's Drive","stopid":"1595"},{"lat":53.3830410953,"lng":-6.3008190573,"fullname":"St Malachy's NS","stopid":"1596"},{"lat":53.3804552156,"lng":-6.309234666,"fullname":"Valeview Gardens","stopid":"1597"},{"lat":53.380242178,"lng":-6.3056204401,"fullname":"Valeview Drive","stopid":"1598"},{"lat":53.3808997507,"lng":-6.3107954162,"fullname":"Cardiffsbridge Road","stopid":"1599"},{"lat":53.3835970179,"lng":-6.3127631835,"fullname":"Deanstown Avenue","stopid":"1600"},{"lat":53.3837454771,"lng":-6.3162750422,"fullname":"Rathvilly Road","stopid":"1604"},{"lat":53.3803706836,"lng":-6.3064420898,"fullname":"St Helena's Road","stopid":"1606"},{"lat":53.3821613835,"lng":-6.3034246475,"fullname":"Dunsink Drive","stopid":"1607"},{"lat":53.3830498569,"lng":-6.2995409187,"fullname":"St Malachy's NS","stopid":"1608"},{"lat":53.3803842381,"lng":-6.2972871396,"fullname":"Cloonlara","stopid":"1609"},{"lat":53.3788077073,"lng":-6.2964030707,"fullname":"Tolka Valley Park","stopid":"1610"},{"lat":53.3512573878,"lng":-6.2737527636,"fullname":"Church Street Upper","stopid":"1614"},{"lat":53.3478271654,"lng":-6.2745973323,"fullname":"Church Street","stopid":"1615"},{"lat":53.3472850723,"lng":-6.275024773,"fullname":"St Michan's Church","stopid":"1616"},{"lat":53.349331208,"lng":-6.2748069643,"fullname":"Capuchin Church","stopid":"1617"},{"lat":53.3508870581,"lng":-6.2742484187,"fullname":"Church Street Upper","stopid":"1618"},{"lat":53.352912695,"lng":-6.2732351987,"fullname":"Constitution Hill","stopid":"1619"},{"lat":53.3832628573,"lng":-6.2441059127,"fullname":"Whitehall Church","stopid":"1620"},{"lat":53.3865272844,"lng":-6.2423929665,"fullname":"Ellenfield Park","stopid":"1641"},{"lat":53.3839478893,"lng":-6.2436267223,"fullname":"Whitehall Church","stopid":"1642"},{"lat":53.3848022174,"lng":-6.2510030954,"fullname":"St Aidan's School","stopid":"1643"},{"lat":53.3483510636,"lng":-6.2822517262,"fullname":"Blackhall Place","stopid":"1647"},{"lat":53.3510913675,"lng":-6.2828024851,"fullname":"Stoneybatter","stopid":"1648"},{"lat":53.352570135,"lng":-6.2843804485,"fullname":"Manor Street","stopid":"1649"},{"lat":53.3561451797,"lng":-6.29425743,"fullname":"St David's Terrace","stopid":"1654"},{"lat":53.3567321718,"lng":-6.2969682741,"fullname":"Blackhorse Avenue","stopid":"1655"},{"lat":53.357297279,"lng":-6.2987786377,"fullname":"McKee Park","stopid":"1656"},{"lat":53.3583921081,"lng":-6.3030769992,"fullname":"Dunard Walk","stopid":"1657"},{"lat":53.3619888217,"lng":-6.3095151879,"fullname":"Skreen Road","stopid":"1658"},{"lat":53.3632599651,"lng":-6.304716699,"fullname":"Croaghpatrick Road","stopid":"1659"},{"lat":53.3651865518,"lng":-6.3093735531,"fullname":"Cabra Garda Station","stopid":"1660"},{"lat":53.3664436172,"lng":-6.3130955378,"fullname":"Our Lady's Church","stopid":"1661"},{"lat":53.3675406917,"lng":-6.31759044,"fullname":"Baggot Road","stopid":"1662"},{"lat":53.369408518,"lng":-6.3238586305,"fullname":"Ashtown Grove","stopid":"1664"},{"lat":53.3706578378,"lng":-6.32770193,"fullname":"Kempton","stopid":"1665"},{"lat":53.3715971506,"lng":-6.3305957311,"fullname":"Ashtown Roundabout","stopid":"1666"},{"lat":53.370869767,"lng":-6.3345015195,"fullname":"Castleknock Road","stopid":"1667"},{"lat":53.3708427404,"lng":-6.3403035502,"fullname":"Old Race Course","stopid":"1668"},{"lat":53.3710173889,"lng":-6.3399360759,"fullname":"Old Race Course","stopid":"1694"},{"lat":53.3710101424,"lng":-6.3342555865,"fullname":"Ashtown Gate","stopid":"1695"},{"lat":53.3715415173,"lng":-6.3298314433,"fullname":"Ashtown Roundabout","stopid":"1696"},{"lat":53.3708011457,"lng":-6.3276662589,"fullname":"Kempton","stopid":"1697"},{"lat":53.3695772972,"lng":-6.3237167513,"fullname":"Ashtown Grove","stopid":"1698"},{"lat":53.3687436057,"lng":-6.3213149954,"fullname":"Baggot Road","stopid":"1699"},{"lat":53.3677088281,"lng":-6.3174034855,"fullname":"Baggot Road","stopid":"1700"},{"lat":53.3665672561,"lng":-6.3129403827,"fullname":"Our Lady's Church","stopid":"1701"},{"lat":53.3656108302,"lng":-6.3101381386,"fullname":"Navan Road Church","stopid":"1702"},{"lat":53.364735399,"lng":-6.3073478338,"fullname":"Cabra Garda Station","stopid":"1703"},{"lat":53.3630522662,"lng":-6.3052808987,"fullname":"Skreen Road","stopid":"1704"},{"lat":53.3621807472,"lng":-6.3084708337,"fullname":"Ardpatrick Road","stopid":"1705"},{"lat":53.3600698256,"lng":-6.3072923753,"fullname":"Blackhorse Avenue","stopid":"1706"},{"lat":53.3584282664,"lng":-6.3024595727,"fullname":"Dunard Walk","stopid":"1707"},{"lat":53.3573323545,"lng":-6.2987171455,"fullname":"Mc Kee Park","stopid":"1708"},{"lat":53.3568682017,"lng":-6.2970529914,"fullname":"Glenbeigh Avenue","stopid":"1709"},{"lat":53.355569904,"lng":-6.2917414915,"fullname":"Aughrim Street","stopid":"1710"},{"lat":53.3545779755,"lng":-6.2896329016,"fullname":"Holy Family Church","stopid":"1711"},{"lat":53.353333917,"lng":-6.2862425918,"fullname":"Aughrim Court","stopid":"1712"},{"lat":53.35190782,"lng":-6.2833254735,"fullname":"Manor Street","stopid":"1713"},{"lat":53.3506378069,"lng":-6.281889388,"fullname":"Stoneybatter","stopid":"1714"},{"lat":53.3477119822,"lng":-6.2821872995,"fullname":"Blackhall Place","stopid":"1715"},{"lat":53.3657153154,"lng":-6.1744415895,"fullname":"Clontarf Road","stopid":"1724"},{"lat":53.3637602627,"lng":-6.1770796569,"fullname":"Doyle's Lane","stopid":"1725"},{"lat":53.3622913897,"lng":-6.1791858761,"fullname":"Dollymount Park","stopid":"1726"},{"lat":53.3604468637,"lng":-6.1831860896,"fullname":"Bull Island","stopid":"1727"},{"lat":53.3596562744,"lng":-6.1861645963,"fullname":"Wooden Bridge","stopid":"1728"},{"lat":53.3584969058,"lng":-6.1903155097,"fullname":"Clontarf Bus Garage","stopid":"1729"},{"lat":53.3582310907,"lng":-6.1941279289,"fullname":"Vernon Court","stopid":"1730"},{"lat":53.3590767534,"lng":-6.1965562043,"fullname":"John the Baptist Ch","stopid":"1731"},{"lat":53.3600629108,"lng":-6.2023442381,"fullname":"Oultan Road","stopid":"1732"},{"lat":53.3602126155,"lng":-6.2063195598,"fullname":"Clontarf Baths","stopid":"1733"},{"lat":53.3603909611,"lng":-6.2110149085,"fullname":"Castle Avenue","stopid":"1734"},{"lat":53.3611433271,"lng":-6.2144392071,"fullname":"The Stiles Road","stopid":"1735"},{"lat":53.3621421816,"lng":-6.2169217466,"fullname":"St Lawrence Road","stopid":"1736"},{"lat":53.3628580244,"lng":-6.2197167209,"fullname":"Alfie Byrne Road","stopid":"1737"},{"lat":53.3634508756,"lng":-6.2239143341,"fullname":"Clontarf Rd Pitches","stopid":"1738"},{"lat":53.3638851946,"lng":-6.2265258592,"fullname":"Clontarf Station","stopid":"1739"},{"lat":53.3641416167,"lng":-6.2268457873,"fullname":"Clontarf Road","stopid":"1740"},{"lat":53.3631169031,"lng":-6.2208028235,"fullname":"Alfie Byrne Road","stopid":"1741"},{"lat":53.3621257933,"lng":-6.2164265849,"fullname":"St Lawrence Road","stopid":"1742"},{"lat":53.3611356864,"lng":-6.2139286665,"fullname":"The Court","stopid":"1743"},{"lat":53.3603486399,"lng":-6.208792977,"fullname":"Scoil U\u00ed Chonaill","stopid":"1744"},{"lat":53.3603470797,"lng":-6.205697885,"fullname":"Clontarf Baths","stopid":"1745"},{"lat":53.3602565191,"lng":-6.2026666379,"fullname":"Oultan Road","stopid":"1746"},{"lat":53.3593509923,"lng":-6.1968601415,"fullname":"John the Baptist Ch","stopid":"1747"},{"lat":53.3582570201,"lng":-6.1934657618,"fullname":"Fortview Avenue","stopid":"1748"},{"lat":53.3585903734,"lng":-6.1905519402,"fullname":"Clontarf Bus Garage","stopid":"1749"},{"lat":53.3688677027,"lng":-6.1778083286,"fullname":"St Anne's Park","stopid":"1750"},{"lat":53.3598698763,"lng":-6.185434327,"fullname":"Wooden Bridge","stopid":"1751"},{"lat":53.3611275917,"lng":-6.1818499186,"fullname":"Bull Island","stopid":"1752"},{"lat":53.3627239628,"lng":-6.1786715732,"fullname":"Dollymount Park","stopid":"1753"},{"lat":53.3641156565,"lng":-6.1768090336,"fullname":"Doyle's Lane","stopid":"1754"},{"lat":53.366429977,"lng":-6.1871240752,"fullname":"Seapark","stopid":"1755"},{"lat":53.367209908,"lng":-6.1828531986,"fullname":"Dollymount Avenue","stopid":"1756"},{"lat":53.3686296419,"lng":-6.1822367276,"fullname":"Park Lawn","stopid":"1757"},{"lat":53.3681296759,"lng":-6.1753902923,"fullname":"Mount Prospect Ave","stopid":"1758"},{"lat":53.3660002227,"lng":-6.1742641084,"fullname":"The Oaks","stopid":"1759"},{"lat":53.3659722447,"lng":-6.1877596219,"fullname":"Seapark Road","stopid":"1760"},{"lat":53.3638373979,"lng":-6.1880455799,"fullname":"Seafield Road Junc","stopid":"1761"},{"lat":53.3637511874,"lng":-6.1912498354,"fullname":"Seafield Road","stopid":"1762"},{"lat":53.3644067789,"lng":-6.1953693753,"fullname":"Vernon Avenue","stopid":"1763"},{"lat":53.3658929687,"lng":-6.1955770404,"fullname":"Blackheath Park","stopid":"1764"},{"lat":53.3665514241,"lng":-6.2022814137,"fullname":"Blackheath Grove","stopid":"1765"},{"lat":53.3638273181,"lng":-6.2052210532,"fullname":"Clontarf Castle","stopid":"1767"},{"lat":53.3688857836,"lng":-6.1819402865,"fullname":"Park Lawn","stopid":"1769"},{"lat":53.3670834688,"lng":-6.1828134982,"fullname":"Dollymount Avenue","stopid":"1770"},{"lat":53.3660419203,"lng":-6.1852471402,"fullname":"St Gabriel's Road","stopid":"1771"},{"lat":53.3650107475,"lng":-6.2050210377,"fullname":"Clontarf Cemetery","stopid":"1772"},{"lat":53.3668109134,"lng":-6.2033975358,"fullname":"Blackheath Park","stopid":"1773"},{"lat":53.3661362371,"lng":-6.1974000647,"fullname":"Blackheath Avenue","stopid":"1774"},{"lat":53.3644399833,"lng":-6.1951876537,"fullname":"Vernon Avenue","stopid":"1775"},{"lat":53.3638160054,"lng":-6.1919683516,"fullname":"Seafield Road","stopid":"1776"},{"lat":53.3653120792,"lng":-6.191048466,"fullname":"Seafield Avenue","stopid":"1777"},{"lat":53.3666136881,"lng":-6.1891599852,"fullname":"Mount Prospect Ave","stopid":"1778"},{"lat":53.3823894993,"lng":-6.1981716507,"fullname":"Brookwood Grove","stopid":"1782"},{"lat":53.3838032159,"lng":-6.1959621817,"fullname":"McAuley Road","stopid":"1783"},{"lat":53.3846209813,"lng":-6.1929810134,"fullname":"Gorsefield Court","stopid":"1784"},{"lat":53.3825960633,"lng":-6.1916236149,"fullname":"McAuley Park","stopid":"1785"},{"lat":53.3819941364,"lng":-6.1922354017,"fullname":"McAuley Park","stopid":"1786"},{"lat":53.3916140511,"lng":-6.178806434,"fullname":"Millbrook Road","stopid":"1788"},{"lat":53.3942624574,"lng":-6.1786031192,"fullname":"Clonrosse Drive","stopid":"1789"},{"lat":53.3965874453,"lng":-6.1819474901,"fullname":"O'Tooles GAA","stopid":"1791"},{"lat":53.3935247615,"lng":-6.1785594397,"fullname":"Millbrook Road","stopid":"1792"},{"lat":53.3916843047,"lng":-6.1786981812,"fullname":"Milbrook Grove","stopid":"1793"},{"lat":53.3694410695,"lng":-6.1794519952,"fullname":"Thornhill Lane","stopid":"1794"},{"lat":53.3615033956,"lng":-6.2968681422,"fullname":"Rosecourt","stopid":"1795"},{"lat":53.3817893456,"lng":-6.191176762,"fullname":"McAuley Park","stopid":"1796"},{"lat":53.3831278454,"lng":-6.1917213403,"fullname":"McAuley Drive","stopid":"1797"},{"lat":53.38438391,"lng":-6.1945395086,"fullname":"McAuley Road","stopid":"1798"},{"lat":53.3830586828,"lng":-6.1966551176,"fullname":"Mask Crescent","stopid":"1799"},{"lat":53.3823067907,"lng":-6.1992424717,"fullname":"Lady of Mercy Church","stopid":"1800"},{"lat":53.3823969984,"lng":-6.2022452282,"fullname":"Brookwood Ave","stopid":"1801"},{"lat":53.3613803234,"lng":-6.2945441455,"fullname":"Cabra Road","stopid":"1802"},{"lat":53.3615635987,"lng":-6.294161194,"fullname":"Cabra Road","stopid":"1803"},{"lat":53.3616973947,"lng":-6.2972360372,"fullname":"Rosecourt","stopid":"1804"},{"lat":53.3611627039,"lng":-6.2975578609,"fullname":"Dunard","stopid":"1805"},{"lat":53.3629069059,"lng":-6.3026421421,"fullname":"Navan Road","stopid":"1806"},{"lat":53.3744144643,"lng":-6.3392628834,"fullname":"Phoenix Park Avenue","stopid":"1807"},{"lat":53.3729020091,"lng":-6.333926261,"fullname":"Old Racecourse","stopid":"1847"},{"lat":53.3633175462,"lng":-6.3030765941,"fullname":"Skreen Road","stopid":"1905"},{"lat":53.361200762,"lng":-6.2970755394,"fullname":"Old Cabra Road","stopid":"1906"},{"lat":53.3599049454,"lng":-6.2938217851,"fullname":"Glenbeigh Road","stopid":"1907"},{"lat":53.3586907976,"lng":-6.2912560728,"fullname":"Cabra Drive","stopid":"1908"},{"lat":53.3569602632,"lng":-6.2884107232,"fullname":"Prussia Street","stopid":"1909"},{"lat":53.3566345096,"lng":-6.2882585192,"fullname":"Prussia Street","stopid":"1911"},{"lat":53.3588063321,"lng":-6.2917923247,"fullname":"Cabra Drive","stopid":"1913"},{"lat":53.3602157627,"lng":-6.2948160275,"fullname":"Glenbeigh Road","stopid":"1914"},{"lat":53.3441183607,"lng":-6.2655253247,"fullname":"Dame Street","stopid":"1934"},{"lat":53.3439343462,"lng":-6.2683263516,"fullname":"Lord Edward Street","stopid":"1935"},{"lat":53.3430874992,"lng":-6.2731516743,"fullname":"High Street","stopid":"1937"},{"lat":53.342977895,"lng":-6.2767606085,"fullname":"Thomas Street","stopid":"1938"},{"lat":53.3429982683,"lng":-6.2806646665,"fullname":"Bridgefoot Street","stopid":"1939"},{"lat":53.3435386006,"lng":-6.2857343479,"fullname":"James Street","stopid":"1940"},{"lat":53.343345402,"lng":-6.2891814203,"fullname":"Steeven's Lane","stopid":"1941"},{"lat":53.3422549834,"lng":-6.2946317294,"fullname":"St James Hospital","stopid":"1942"},{"lat":53.3413732637,"lng":-6.2983463657,"fullname":"Mount Brown","stopid":"1943"},{"lat":53.3406753265,"lng":-6.3036154053,"fullname":"Old Kilmainham","stopid":"1944"},{"lat":53.3405547842,"lng":-6.3096874004,"fullname":"Inchicore Library","stopid":"1945"},{"lat":53.3401188049,"lng":-6.3163574769,"fullname":"Richmond Park","stopid":"1946"},{"lat":53.3398178565,"lng":-6.3179611952,"fullname":"Camac Close","stopid":"1947"},{"lat":53.338661996,"lng":-6.3220463016,"fullname":"Tyrconnell Road","stopid":"1948"},{"lat":53.3376414796,"lng":-6.3236180803,"fullname":"Tyrconnell Park","stopid":"1949"},{"lat":53.3360210442,"lng":-6.325994134,"fullname":"Oblates Church","stopid":"1950"},{"lat":53.333134838,"lng":-6.3291252192,"fullname":"Blackhorse Luas","stopid":"1951"},{"lat":53.3317095154,"lng":-6.3300367679,"fullname":"Lansdowne Valley","stopid":"1952"},{"lat":53.3299944995,"lng":-6.3320856207,"fullname":"Bluebell Luas","stopid":"1953"},{"lat":53.3287741741,"lng":-6.3348056591,"fullname":"Muirfield Drive","stopid":"1954"},{"lat":53.3279457072,"lng":-6.3379156634,"fullname":"Carriglea Ind Estate","stopid":"1955"},{"lat":53.3263654179,"lng":-6.343847094,"fullname":"Kylemore Luas","stopid":"1956"},{"lat":53.3264867532,"lng":-6.3448182275,"fullname":"Kylemore Luas","stopid":"1981"},{"lat":53.3272299503,"lng":-6.3420270489,"fullname":"Kylemore Road Junc","stopid":"1982"},{"lat":53.3294445319,"lng":-6.3338937295,"fullname":"Bluebell Luas","stopid":"1984"},{"lat":53.3329236566,"lng":-6.3294487913,"fullname":"Blackhorse Luas","stopid":"1985"},{"lat":53.3353553797,"lng":-6.3272364989,"fullname":"Tyrconnell Road","stopid":"1986"},{"lat":53.3362899056,"lng":-6.3259385547,"fullname":"Oblates Church","stopid":"1987"},{"lat":53.3382603815,"lng":-6.3228880049,"fullname":"Hampton Court","stopid":"1988"},{"lat":53.3397064788,"lng":-6.3189867705,"fullname":"Emmet Road","stopid":"1989"},{"lat":53.3404727818,"lng":-6.3146915731,"fullname":"Myra Cottages","stopid":"1990"},{"lat":53.3406544982,"lng":-6.309112777,"fullname":"Inchicore Library","stopid":"1992"},{"lat":53.3408536614,"lng":-6.3047797266,"fullname":"Old Kilmainham","stopid":"1993"},{"lat":53.3414239628,"lng":-6.2993806005,"fullname":"Mount Brown","stopid":"1994"},{"lat":53.342675186,"lng":-6.2932182275,"fullname":"Basin Street Lower","stopid":"1995"},{"lat":53.3435600718,"lng":-6.2884819538,"fullname":"James Street","stopid":"1996"},{"lat":53.3435710812,"lng":-6.2854927416,"fullname":"Thomas Street","stopid":"1997"},{"lat":53.3431396149,"lng":-6.2804937721,"fullname":"Bridgefoot Street","stopid":"1998"},{"lat":53.3431192358,"lng":-6.2765897014,"fullname":"Francis St Junc","stopid":"1999"},{"lat":53.3433104732,"lng":-6.2736533054,"fullname":"High Street","stopid":"2001"},{"lat":53.3437708066,"lng":-6.26944439,"fullname":"Lord Edward Street","stopid":"2002"},{"lat":53.3440412686,"lng":-6.2682619416,"fullname":"Exchange St Upper","stopid":"2003"},{"lat":53.3151737464,"lng":-6.2201861562,"fullname":"RTE","stopid":"2085"},{"lat":53.3181567846,"lng":-6.2147033821,"fullname":"Nutley Avenue","stopid":"2086"},{"lat":53.3206094716,"lng":-6.212829685,"fullname":"Ailesbury Road","stopid":"2087"},{"lat":53.3172966893,"lng":-6.2160901747,"fullname":"St Vincent's Hosp","stopid":"2088"},{"lat":53.3153019938,"lng":-6.2197455536,"fullname":"RTE","stopid":"2089"},{"lat":53.3347519664,"lng":-6.2897506382,"fullname":"Coombe Hospital","stopid":"2094"},{"lat":53.3290374668,"lng":-6.3024707515,"fullname":"Crumlin SC","stopid":"2095"},{"lat":53.3280835905,"lng":-6.306817491,"fullname":"Guinness RFC","stopid":"2096"},{"lat":53.327432754,"lng":-6.3097258064,"fullname":"Iveagh Gardens","stopid":"2097"},{"lat":53.3255615814,"lng":-6.3166004694,"fullname":"Drimnagh Road","stopid":"2099"},{"lat":53.3249545652,"lng":-6.3181706389,"fullname":"Crumlin Hospital","stopid":"2101"},{"lat":53.3241948461,"lng":-6.3261419022,"fullname":"Balfe Road","stopid":"2102"},{"lat":53.3220826955,"lng":-6.3299924171,"fullname":"Walkinstown Road","stopid":"2103"},{"lat":53.3236525794,"lng":-6.3374970777,"fullname":"Walkinstown Parade","stopid":"2105"},{"lat":53.3238376853,"lng":-6.339171214,"fullname":"Long Mile Road","stopid":"2181"},{"lat":53.3239619235,"lng":-6.335188222,"fullname":"Walkinstown Parade","stopid":"2182"},{"lat":53.3217039808,"lng":-6.3305476088,"fullname":"Walkinstown Shop Cen","stopid":"2183"},{"lat":53.3229966132,"lng":-6.3291460974,"fullname":"Drimnagh Road Junc","stopid":"2184"},{"lat":53.3242587028,"lng":-6.3274904893,"fullname":"Slievebloom Road","stopid":"2185"},{"lat":53.3269332843,"lng":-6.3125379797,"fullname":"Crumlin Road","stopid":"2186"},{"lat":53.3280452769,"lng":-6.3072844253,"fullname":"Iveagh Grounds","stopid":"2187"},{"lat":53.3290169228,"lng":-6.3029219812,"fullname":"Crumlin College","stopid":"2188"},{"lat":53.3296953959,"lng":-6.3000724082,"fullname":"Crumlin SC","stopid":"2189"},{"lat":53.332770572,"lng":-6.2926077162,"fullname":"Dolphin's Barn","stopid":"2190"},{"lat":53.3480255719,"lng":-6.3104432647,"fullname":"Islandbridge Gate","stopid":"2191"},{"lat":53.3472456229,"lng":-6.3156710929,"fullname":"UCD Boat Club","stopid":"2192"},{"lat":53.3463845504,"lng":-6.3234552905,"fullname":"Garda Rowing Club","stopid":"2193"},{"lat":53.3461933372,"lng":-6.3284043035,"fullname":"Military Road","stopid":"2194"},{"lat":53.3467441138,"lng":-6.3375899927,"fullname":"St Mary's Hospital","stopid":"2195"},{"lat":53.3478346251,"lng":-6.3416781515,"fullname":"Chapelizod","stopid":"2196"},{"lat":53.3481655534,"lng":-6.3467422149,"fullname":"Lucan Road","stopid":"2197"},{"lat":53.3506251418,"lng":-6.3510632886,"fullname":"Belgrove Park","stopid":"2198"},{"lat":53.3502827504,"lng":-6.3529541507,"fullname":"Kylemore Road","stopid":"2200"},{"lat":53.3519743827,"lng":-6.3556979952,"fullname":"Glenaulin","stopid":"2243"},{"lat":53.3508843467,"lng":-6.3516090744,"fullname":"Belgrove Park","stopid":"2244"},{"lat":53.3494632047,"lng":-6.3482842113,"fullname":"Laurence Brook","stopid":"2245"},{"lat":53.3483113088,"lng":-6.3436423537,"fullname":"Chapelizod","stopid":"2246"},{"lat":53.346752859,"lng":-6.336282916,"fullname":"St Mary's Hospital","stopid":"2247"},{"lat":53.3463209319,"lng":-6.3278886373,"fullname":"Military Road","stopid":"2248"},{"lat":53.3465317047,"lng":-6.3211364494,"fullname":"Garda Rowing Club","stopid":"2249"},{"lat":53.3474385871,"lng":-6.31533304,"fullname":"Salmon Pool","stopid":"2250"},{"lat":53.3481320367,"lng":-6.3109797923,"fullname":"Islandbridge Gate","stopid":"2251"},{"lat":53.3602300964,"lng":-6.2382618902,"fullname":"East Wall Road","stopid":"2255"},{"lat":53.3583489412,"lng":-6.2356501524,"fullname":"West Road","stopid":"2256"},{"lat":53.3563824157,"lng":-6.2382102836,"fullname":"Strangford Rd East","stopid":"2257"},{"lat":53.3546537543,"lng":-6.2380111771,"fullname":"St Mary's Road","stopid":"2258"},{"lat":53.3535381307,"lng":-6.2367201907,"fullname":"Church Road","stopid":"2259"},{"lat":53.3517785078,"lng":-6.2350352598,"fullname":"Kilane Road","stopid":"2260"},{"lat":53.3526385466,"lng":-6.2324158937,"fullname":"Church Court","stopid":"2261"},{"lat":53.3535229015,"lng":-6.226595602,"fullname":"Merchants Road","stopid":"2262"},{"lat":53.3511016046,"lng":-6.2209277764,"fullname":"Alexandra Road","stopid":"2264"},{"lat":53.3521964621,"lng":-6.2178026368,"fullname":"Branch Road North","stopid":"2265"},